[
  {
    "name": "ABI FALAFEL",
    "rating": 4.0,
    "address": "Trubarjeva cesta 40, 1000 Ljubljana",
    "subsidy_price": 3.95,
    "meal_price": 9.0,
    "city": "LJUBLJANA",
    "latitude": 46.05244723,
    "longitude": 14.51096893,
    "details_url": "https://www.studentska-prehrana.si/sl/restaurant/Details/1478"
  },
  {
    "name": "Aga kebab",
    "rating": 5.0,
    "address": "Litijska cesta 140, 1000 Ljubljana",
    "subsidy_price": 0.97,
    "meal_price": 6.02,
    "city": "LJUBLJANA",
    "latitude": 46.0804828,
    "longitude": 14.4962593,
    "details_url": "https://www.studentska-prehrana.si/sl/restaurant/Details/3316"
  },
  {
    "name": "Ajda burgers & more BTC",
    "rating": 4.0,
    "address": "Šmartinska cesta 152, 1000 Ljubljana",
    "subsidy_price": 3.75,
    "meal_price": 8.8,
    "city": "LJUBLJANA",
    "latitude": 46.0681081,
    "longitude": 14.5420462,
    "details_url": "https://www.studentska-prehrana.si/sl/restaurant/Details/2999"
  },
  {
    "name": "Ajda burgers & more postaja",
    "rating": 5.0,
    "address": "Trg OF 13, 1000 Ljubljana",
    "subsidy_price": 2.45,
    "meal_price": 7.5,
    "city": "LJUBLJANA",
    "latitude": 46.0574226,
    "longitude": 14.509497,
    "details_url": "https://www.studentska-prehrana.si/sl/restaurant/Details/2549"
  },
  {
    "name": "AL YASMIN arabska restavracija",
    "rating": 5.0,
    "address": "Slovenska cesta 56, 1000 Ljubljana",
    "subsidy_price": 3.95,
    "meal_price": 9.0,
    "city": "LJUBLJANA",
    "latitude": 46.0561633,
    "longitude": 14.5062507,
    "details_url": "https://www.studentska-prehrana.si/sl/restaurant/Details/3347"
  },
  {
    "name": "ART kavarna Odeon",
    "rating": null,
    "address": "Ulica Prekomorskih brigad 4, 6310 Izola/Isola",
    "subsidy_price": 3.95,
    "meal_price": 9.0,
    "city": "IZOLA/ISOLA",
    "latitude": 45.5354708,
    "longitude": 13.65936,
    "details_url": "https://www.studentska-prehrana.si/sl/restaurant/Details/3332"
  },
  {
    "name": "Avokado",
    "rating": 4.0,
    "address": "Gortanov trg 4, 6000 Koper/Capodistria",
    "subsidy_price": 3.95,
    "meal_price": 9.0,
    "city": "KOPER/CAPODISTRIA",
    "latitude": 45.5462204,
    "longitude": 13.728149,
    "details_url": "https://www.studentska-prehrana.si/sl/restaurant/Details/3275"
  },
  {
    "name": "Azijska restavracija Han",
    "rating": 4.0,
    "address": "Kongresni trg 3, 1000 Ljubljana",
    "subsidy_price": 3.95,
    "meal_price": 9.0,
    "city": "LJUBLJANA",
    "latitude": 46.0506054,
    "longitude": 14.5045463,
    "details_url": "https://www.studentska-prehrana.si/sl/restaurant/Details/2147"
  },
  {
    "name": "Balkan express",
    "rating": 4.0,
    "address": "Rakuševa ulica 1, 1000 Ljubljana",
    "subsidy_price": 3.95,
    "meal_price": 9.0,
    "city": "LJUBLJANA",
    "latitude": 46.0782899,
    "longitude": 14.4836777,
    "details_url": "https://www.studentska-prehrana.si/sl/restaurant/Details/3261"
  },
  {
    "name": "Bar Moment",
    "rating": 5.0,
    "address": "Litostrojska cesta 44E, 1000 Ljubljana",
    "subsidy_price": 2.95,
    "meal_price": 8.0,
    "city": "LJUBLJANA",
    "latitude": 46.078743,
    "longitude": 14.495953,
    "details_url": "https://www.studentska-prehrana.si/sl/restaurant/Details/3042"
  },
  {
    "name": "Baščaršija Koper Carpacciov trg",
    "rating": 4.0,
    "address": "Carpacciov trg 6, 6000 Koper/Capodistria",
    "subsidy_price": 3.95,
    "meal_price": 9.0,
    "city": "KOPER/CAPODISTRIA",
    "latitude": 45.5478156,
    "longitude": 13.7259576,
    "details_url": "https://www.studentska-prehrana.si/sl/restaurant/Details/3207"
  },
  {
    "name": "Baščaršija Ljubljana Trubarjeva",
    "rating": 4.0,
    "address": "Trubarjeva cesta 52, 1000 Ljubljana",
    "subsidy_price": 3.95,
    "meal_price": 9.0,
    "city": "LJUBLJANA",
    "latitude": 46.0522597,
    "longitude": 14.5124626,
    "details_url": "https://www.studentska-prehrana.si/sl/restaurant/Details/3259"
  },
  {
    "name": "Baščaršija Maribor Gosposvetska",
    "rating": 5.0,
    "address": "Gosposvetska cesta 43c, 2000 Maribor",
    "subsidy_price": 3.55,
    "meal_price": 8.6,
    "city": "MARIBOR",
    "latitude": 46.5620837,
    "longitude": 15.6323094,
    "details_url": "https://www.studentska-prehrana.si/sl/restaurant/Details/3237"
  },
  {
    "name": "BELUGA bar bistro",
    "rating": null,
    "address": "Gosposka 10, 1000 Ljubljana",
    "subsidy_price": 3.95,
    "meal_price": 9.0,
    "city": "LJUBLJANA",
    "latitude": 46.0480668,
    "longitude": 14.5040596,
    "details_url": "https://www.studentska-prehrana.si/sl/restaurant/Details/3377"
  },
  {
    "name": "Biotehniški izobraževalni center Ljubljana",
    "rating": 4.0,
    "address": "Ižanska cesta 10, 1000 Ljubljana",
    "subsidy_price": 2.45,
    "meal_price": 7.5,
    "city": "LJUBLJANA",
    "latitude": 46.0397001,
    "longitude": 14.5130312,
    "details_url": "https://www.studentska-prehrana.si/sl/restaurant/Details/2102"
  },
  {
    "name": "Biotehniški izobraževalni center Ljubljana",
    "rating": 3.0,
    "address": "Cesta v Mestni log 47, 1000 Ljubljana",
    "subsidy_price": 2.45,
    "meal_price": 7.5,
    "city": "LJUBLJANA",
    "latitude": 46.0369256,
    "longitude": 14.4928696,
    "details_url": "https://www.studentska-prehrana.si/sl/restaurant/Details/2103"
  },
  {
    "name": "Bistro Arty",
    "rating": 4.0,
    "address": "Slovenska ulica 20, 2000 Maribor",
    "subsidy_price": 3.95,
    "meal_price": 9.0,
    "city": "MARIBOR",
    "latitude": 46.560381,
    "longitude": 15.64577,
    "details_url": "https://www.studentska-prehrana.si/sl/restaurant/Details/2862"
  },
  {
    "name": "Bistro Luft",
    "rating": null,
    "address": "Mirce 20, 5270 Ajdovščina",
    "subsidy_price": 3.95,
    "meal_price": 9.0,
    "city": "AJDOVŠČINA",
    "latitude": 45.8833914,
    "longitude": 13.8920092,
    "details_url": "https://www.studentska-prehrana.si/sl/restaurant/Details/3331"
  },
  {
    "name": "Bistro podmornica caffee bar",
    "rating": null,
    "address": "Ulica Osvobodilne Fronte 15, 6000 Koper/Capodistria",
    "subsidy_price": 2.95,
    "meal_price": 8.0,
    "city": "KOPER/CAPODISTRIA",
    "latitude": 45.5471319,
    "longitude": 13.7304181,
    "details_url": "https://www.studentska-prehrana.si/sl/restaurant/Details/3371"
  },
  {
    "name": "Bistro Situla",
    "rating": 4.0,
    "address": "Dilančeva ulica 1, 8000 Novo mesto",
    "subsidy_price": 3.95,
    "meal_price": 9.0,
    "city": "NOVO MESTO",
    "latitude": 45.804333,
    "longitude": 15.1700618,
    "details_url": "https://www.studentska-prehrana.si/sl/restaurant/Details/3280"
  },
  {
    "name": "Bistro Slovely",
    "rating": 5.0,
    "address": "Kardeljeva ploščad 5, 1000 Ljubljana",
    "subsidy_price": 3.55,
    "meal_price": 8.6,
    "city": "LJUBLJANA",
    "latitude": 46.0755832,
    "longitude": 14.513194,
    "details_url": "https://www.studentska-prehrana.si/sl/restaurant/Details/3221"
  },
  {
    "name": "BISTRO VILLA DOMUS",
    "rating": 5.0,
    "address": "Vojkovo nabrežje 12, 6000 Koper/Capodistria",
    "subsidy_price": 3.05,
    "meal_price": 8.1,
    "city": "KOPER/CAPODISTRIA",
    "latitude": 45.545517,
    "longitude": 13.733073,
    "details_url": "https://www.studentska-prehrana.si/sl/restaurant/Details/2821"
  },
  {
    "name": "Bohor",
    "rating": 5.0,
    "address": "Kidričeva ulica 23, 3250 Rogaška Slatina",
    "subsidy_price": 3.95,
    "meal_price": 9.0,
    "city": "ROGAŠKA SLATINA",
    "latitude": 46.2338608,
    "longitude": 15.6377234,
    "details_url": "https://www.studentska-prehrana.si/sl/restaurant/Details/1645"
  },
  {
    "name": "Bolnišnična restavracija Splošne bolnišnice Jesenice",
    "rating": 5.0,
    "address": "Cesta maršala Tita 112, 4270 Jesenice",
    "subsidy_price": 1.95,
    "meal_price": 7.0,
    "city": "JESENICE",
    "latitude": 46.4428775,
    "longitude": 14.0369591,
    "details_url": "https://www.studentska-prehrana.si/sl/restaurant/Details/3109"
  },
  {
    "name": "Burek Olimpija Rimska",
    "rating": 4.0,
    "address": "Rimska cesta 13, 1000 Ljubljana",
    "subsidy_price": 0.0,
    "meal_price": 5.05,
    "city": "LJUBLJANA",
    "latitude": 46.047428,
    "longitude": 14.4998576,
    "details_url": "https://www.studentska-prehrana.si/sl/restaurant/Details/3173"
  },
  {
    "name": "BURGER TIME",
    "rating": 4.0,
    "address": "Trubarjeva 47, 1000 Ljubljana",
    "subsidy_price": 3.95,
    "meal_price": 9.0,
    "city": "LJUBLJANA",
    "latitude": 46.0525226,
    "longitude": 14.5117865,
    "details_url": "https://www.studentska-prehrana.si/sl/restaurant/Details/3067"
  },
  {
    "name": "Cantante cafe Tabor",
    "rating": 4.0,
    "address": "Ulica Pariške komune 37, 2000 Maribor",
    "subsidy_price": 3.45,
    "meal_price": 8.5,
    "city": "MARIBOR",
    "latitude": 46.5484518,
    "longitude": 15.6430608,
    "details_url": "https://www.studentska-prehrana.si/sl/restaurant/Details/1161"
  },
  {
    "name": "Cantante cafe Tabor - DOSTAVA",
    "rating": 4.0,
    "address": "Ulica Pariške komune 37, 2000 Maribor",
    "subsidy_price": 3.95,
    "meal_price": 9.0,
    "city": "MARIBOR",
    "latitude": 46.5484518,
    "longitude": 15.6430608,
    "details_url": "https://www.studentska-prehrana.si/sl/restaurant/Details/1673"
  },
  {
    "name": "Cantina QUE PASA",
    "rating": 5.0,
    "address": "Trg osvobodilne fronte 13, 1000 Ljubljana",
    "subsidy_price": 3.55,
    "meal_price": 8.6,
    "city": "LJUBLJANA",
    "latitude": 46.0574226,
    "longitude": 14.509497,
    "details_url": "https://www.studentska-prehrana.si/sl/restaurant/Details/3176"
  },
  {
    "name": "Cappuccino Svetilnik Izola",
    "rating": null,
    "address": "Kopališka cesta 14, 6310 Izola/Isola",
    "subsidy_price": 3.95,
    "meal_price": 9.0,
    "city": "IZOLA/ISOLA",
    "latitude": 45.5410644,
    "longitude": 13.6565676,
    "details_url": "https://www.studentska-prehrana.si/sl/restaurant/Details/3375"
  },
  {
    "name": "Carpiano",
    "rating": null,
    "address": "Štefanova ulica 5, 1000 Ljubljana",
    "subsidy_price": 2.95,
    "meal_price": 8.0,
    "city": "LJUBLJANA",
    "latitude": 46.0532954,
    "longitude": 14.5028936,
    "details_url": "https://www.studentska-prehrana.si/sl/restaurant/Details/3363"
  },
  {
    "name": "Chutys Europark Maribor",
    "rating": 4.0,
    "address": "Pobreška cesta 18, 2000 Maribor",
    "subsidy_price": 3.95,
    "meal_price": 9.0,
    "city": "MARIBOR",
    "latitude": 46.5537814,
    "longitude": 15.6532921,
    "details_url": "https://www.studentska-prehrana.si/sl/restaurant/Details/3171"
  },
  {
    "name": "City grill",
    "rating": 4.0,
    "address": "Slovenska 18, 2000 Maribor",
    "subsidy_price": 2.95,
    "meal_price": 8.0,
    "city": "MARIBOR",
    "latitude": 46.5603447,
    "longitude": 15.6458924,
    "details_url": "https://www.studentska-prehrana.si/sl/restaurant/Details/1568"
  },
  {
    "name": "City grill - DOSTAVA",
    "rating": 4.0,
    "address": "Slovenska 18, 2000 Maribor",
    "subsidy_price": 3.15,
    "meal_price": 8.2,
    "city": "MARIBOR",
    "latitude": 46.5603447,
    "longitude": 15.6458924,
    "details_url": "https://www.studentska-prehrana.si/sl/restaurant/Details/1569"
  },
  {
    "name": "Čevabdžinica Sarajevo84",
    "rating": 4.0,
    "address": "Gramšijev trg 8, 6000 Koper/Capodistria",
    "subsidy_price": 3.55,
    "meal_price": 8.6,
    "city": "KOPER/CAPODISTRIA",
    "latitude": 45.5472243,
    "longitude": 13.7354463,
    "details_url": "https://www.studentska-prehrana.si/sl/restaurant/Details/3114"
  },
  {
    "name": "Čevabdžinica Sarajevo84 (Tomažičev trg)",
    "rating": 4.0,
    "address": "Tomažičev trg 1, 6000 Koper/Capodistria",
    "subsidy_price": 3.55,
    "meal_price": 8.6,
    "city": "KOPER/CAPODISTRIA",
    "latitude": 45.5468662,
    "longitude": 13.7266374,
    "details_url": "https://www.studentska-prehrana.si/sl/restaurant/Details/3234"
  },
  {
    "name": "Čewapi Citypark Ljubljana",
    "rating": 3.0,
    "address": "Moskovskova ulica 4, 1000 Ljubljana",
    "subsidy_price": 3.95,
    "meal_price": 9.0,
    "city": "LJUBLJANA",
    "latitude": 46.0569465,
    "longitude": 14.5057515,
    "details_url": "https://www.studentska-prehrana.si/sl/restaurant/Details/3286"
  },
  {
    "name": "Čewapi Ljubljana Center",
    "rating": 4.0,
    "address": "Cankarjeva 6, 1000 Ljubljana",
    "subsidy_price": 3.95,
    "meal_price": 9.0,
    "city": "LJUBLJANA",
    "latitude": 46.052794,
    "longitude": 14.5025461,
    "details_url": "https://www.studentska-prehrana.si/sl/restaurant/Details/3285"
  },
  {
    "name": "Čewapi Supernova Ljubljana",
    "rating": 4.0,
    "address": "Jurčkova cesta 223, 1000 Ljubljana",
    "subsidy_price": 3.95,
    "meal_price": 9.0,
    "city": "LJUBLJANA",
    "latitude": 46.0222779,
    "longitude": 14.5364504,
    "details_url": "https://www.studentska-prehrana.si/sl/restaurant/Details/3287"
  },
  {
    "name": "DA BU DA, Azijska restavracija",
    "rating": 4.0,
    "address": "Šubičeva 1a, 1000 Ljubljana",
    "subsidy_price": 3.95,
    "meal_price": 9.0,
    "city": "LJUBLJANA",
    "latitude": 46.0514392,
    "longitude": 14.5000498,
    "details_url": "https://www.studentska-prehrana.si/sl/restaurant/Details/1485"
  },
  {
    "name": "Das ist Valter Kranj",
    "rating": 5.0,
    "address": "Cesta 1.maja 1a, 4000 Kranj",
    "subsidy_price": 3.95,
    "meal_price": 9.0,
    "city": "KRANJ",
    "latitude": 46.2333989,
    "longitude": 14.3620683,
    "details_url": "https://www.studentska-prehrana.si/sl/restaurant/Details/2326"
  },
  {
    "name": "Das ist Valter Ljubljana center",
    "rating": 4.0,
    "address": "Borštnikov trg 3, 1000 Ljubljana",
    "subsidy_price": 3.95,
    "meal_price": 9.0,
    "city": "LJUBLJANA",
    "latitude": 46.0478636,
    "longitude": 14.4991438,
    "details_url": "https://www.studentska-prehrana.si/sl/restaurant/Details/2951"
  },
  {
    "name": "Das ist Valter Ljubljana Šmartinska",
    "rating": 5.0,
    "address": "Šmartinska cesta 3, 1000 Ljubljana",
    "subsidy_price": 3.95,
    "meal_price": 9.0,
    "city": "LJUBLJANA",
    "latitude": 46.0562816,
    "longitude": 14.5192825,
    "details_url": "https://www.studentska-prehrana.si/sl/restaurant/Details/2131"
  },
  {
    "name": "Das ist Valter Škofja Loka",
    "rating": 4.0,
    "address": "Kidričeva cesta 8c, 4220 Škofja Loka",
    "subsidy_price": 3.95,
    "meal_price": 9.0,
    "city": "ŠKOFJA LOKA",
    "latitude": 46.1674362,
    "longitude": 14.3105818,
    "details_url": "https://www.studentska-prehrana.si/sl/restaurant/Details/2252"
  },
  {
    "name": "Dijaški dom",
    "rating": 5.0,
    "address": "Sončna pot 20, 6320 Portorož/Portorose",
    "subsidy_price": 2.97,
    "meal_price": 8.02,
    "city": "PORTOROŽ/PORTOROSE",
    "latitude": 45.5169575,
    "longitude": 13.5835564,
    "details_url": "https://www.studentska-prehrana.si/sl/restaurant/Details/3145"
  },
  {
    "name": "Dijaški dom Lizike Jančar",
    "rating": 4.0,
    "address": "Titova cesta 24a, 2000 Maribor",
    "subsidy_price": 1.95,
    "meal_price": 7.0,
    "city": "MARIBOR",
    "latitude": 46.5487086,
    "longitude": 15.6488376,
    "details_url": "https://www.studentska-prehrana.si/sl/restaurant/Details/1090"
  },
  {
    "name": "Dijaški dom Poljane",
    "rating": 5.0,
    "address": "Potočnikova ulica 3, 1000 Ljubljana",
    "subsidy_price": 1.47,
    "meal_price": 6.52,
    "city": "LJUBLJANA",
    "latitude": 46.0492373,
    "longitude": 14.5233316,
    "details_url": "https://www.studentska-prehrana.si/sl/restaurant/Details/1502"
  },
  {
    "name": "Dijaški dom Tabor",
    "rating": 5.0,
    "address": "Kotnikova 4, 1000 Ljubljana",
    "subsidy_price": 2.05,
    "meal_price": 7.1,
    "city": "LJUBLJANA",
    "latitude": 46.0534162,
    "longitude": 14.5137731,
    "details_url": "https://www.studentska-prehrana.si/sl/restaurant/Details/2111"
  },
  {
    "name": "Dijaški dom Vič",
    "rating": 5.0,
    "address": "Gerbičeva 53, 1000 Ljubljana",
    "subsidy_price": 1.95,
    "meal_price": 7.0,
    "city": "LJUBLJANA",
    "latitude": 46.03939685,
    "longitude": 14.48836816,
    "details_url": "https://www.studentska-prehrana.si/sl/restaurant/Details/1314"
  },
  {
    "name": "Dijaški in študentski dom Novo mesto",
    "rating": 4.0,
    "address": "Šegova ulica 115, 8000 Novo mesto",
    "subsidy_price": 1.45,
    "meal_price": 6.5,
    "city": "NOVO MESTO",
    "latitude": 45.7935957,
    "longitude": 15.1601492,
    "details_url": "https://www.studentska-prehrana.si/sl/restaurant/Details/1501"
  },
  {
    "name": "Do kosti Pizzeria Chianti",
    "rating": null,
    "address": "Rozmanova ulica 25, 8000 Novo mesto",
    "subsidy_price": 3.95,
    "meal_price": 9.0,
    "city": "NOVO MESTO",
    "latitude": 45.8054042,
    "longitude": 15.1652514,
    "details_url": "https://www.studentska-prehrana.si/sl/restaurant/Details/3381"
  },
  {
    "name": "Dobra hiša",
    "rating": 4.0,
    "address": "Stegne 11a, 1000 Ljubljana",
    "subsidy_price": 3.95,
    "meal_price": 9.0,
    "city": "LJUBLJANA",
    "latitude": 46.0828895,
    "longitude": 14.4879422,
    "details_url": "https://www.studentska-prehrana.si/sl/restaurant/Details/2552"
  },
  {
    "name": "Dobra hiša Rudnik",
    "rating": 4.0,
    "address": "Jurčkova cesta 223, 1000 Ljubljana",
    "subsidy_price": 3.95,
    "meal_price": 9.0,
    "city": "LJUBLJANA",
    "latitude": 46.0218387,
    "longitude": 14.5359136,
    "details_url": "https://www.studentska-prehrana.si/sl/restaurant/Details/2298"
  },
  {
    "name": "Dobrote vzhoda",
    "rating": 5.0,
    "address": "Celovška cesta 69 a, 1000 Ljubljana",
    "subsidy_price": 3.95,
    "meal_price": 9.0,
    "city": "LJUBLJANA",
    "latitude": 46.063533,
    "longitude": 14.4946549,
    "details_url": "https://www.studentska-prehrana.si/sl/restaurant/Details/1578"
  },
  {
    "name": "Dodo Pizza Koper",
    "rating": 5.0,
    "address": "Ljubljanska cesta 2a, 6000 Koper/Capodistria",
    "subsidy_price": 2.95,
    "meal_price": 8.0,
    "city": "KOPER/CAPODISTRIA",
    "latitude": 45.5442493,
    "longitude": 13.7308559,
    "details_url": "https://www.studentska-prehrana.si/sl/restaurant/Details/3370"
  },
  {
    "name": "Dodo Pizza Ljubljana-Bežigrad",
    "rating": 5.0,
    "address": "Dunajska cesta 105, 1000 Ljubljana",
    "subsidy_price": 2.95,
    "meal_price": 8.0,
    "city": "LJUBLJANA",
    "latitude": 46.0739748,
    "longitude": 14.5107981,
    "details_url": "https://www.studentska-prehrana.si/sl/restaurant/Details/3350"
  },
  {
    "name": "Dodo Pizza Ljubljana-center",
    "rating": 5.0,
    "address": "Ilirska ulica 4, 1000 Ljubljana",
    "subsidy_price": 2.95,
    "meal_price": 8.0,
    "city": "LJUBLJANA",
    "latitude": 46.0528712,
    "longitude": 14.5143744,
    "details_url": "https://www.studentska-prehrana.si/sl/restaurant/Details/3349"
  },
  {
    "name": "Dodo Pizza ljubljana-Fužine",
    "rating": null,
    "address": "Nove Fužine 45, 1000 Ljubljana",
    "subsidy_price": 2.95,
    "meal_price": 8.0,
    "city": "LJUBLJANA",
    "latitude": 46.0548719,
    "longitude": 14.5647044,
    "details_url": "https://www.studentska-prehrana.si/sl/restaurant/Details/3351"
  },
  {
    "name": "Domača pekarna Bežigrad",
    "rating": 5.0,
    "address": "Dunajska cesta 113, 1000 Ljubljana",
    "subsidy_price": 1.07,
    "meal_price": 6.12,
    "city": "LJUBLJANA",
    "latitude": 46.0748031,
    "longitude": 14.510908,
    "details_url": "https://www.studentska-prehrana.si/sl/restaurant/Details/3191"
  },
  {
    "name": "EASY BEER",
    "rating": 5.0,
    "address": "Ferrarska ulica 30, 6000 Koper/Capodistria",
    "subsidy_price": 3.95,
    "meal_price": 9.0,
    "city": "KOPER/CAPODISTRIA",
    "latitude": 45.547239,
    "longitude": 13.7382923,
    "details_url": "https://www.studentska-prehrana.si/sl/restaurant/Details/3369"
  },
  {
    "name": "Eda restavracija",
    "rating": 5.0,
    "address": "Delpinova ulica 18b, 5000 Nova Gorica",
    "subsidy_price": 2.95,
    "meal_price": 8.0,
    "city": "NOVA GORICA",
    "latitude": 45.95533,
    "longitude": 13.6460064,
    "details_url": "https://www.studentska-prehrana.si/sl/restaurant/Details/3243"
  },
  {
    "name": "Ej babi",
    "rating": 3.0,
    "address": "Slovenska ulica 9, 2000 Maribor",
    "subsidy_price": 3.95,
    "meal_price": 9.0,
    "city": "MARIBOR",
    "latitude": 46.5602684,
    "longitude": 15.6468947,
    "details_url": "https://www.studentska-prehrana.si/sl/restaurant/Details/3399"
  },
  {
    "name": "Fari's",
    "rating": 4.0,
    "address": "Adamič Lundrovo nabrežje 3, 1000 Ljubljana",
    "subsidy_price": 3.95,
    "meal_price": 9.0,
    "city": "LJUBLJANA",
    "latitude": 46.0513818,
    "longitude": 14.5082387,
    "details_url": "https://www.studentska-prehrana.si/sl/restaurant/Details/3292"
  },
  {
    "name": "Fari's",
    "rating": 4.0,
    "address": "Miklošičeva 34, 1000 Ljubljana",
    "subsidy_price": 3.95,
    "meal_price": 9.0,
    "city": "LJUBLJANA",
    "latitude": 46.0567756,
    "longitude": 14.5083706,
    "details_url": "https://www.studentska-prehrana.si/sl/restaurant/Details/2589"
  },
  {
    "name": "Fast food & pekarna  PLAVA LAGUNA",
    "rating": 4.0,
    "address": "Linhartova cesta 11, 1000 Ljubljana",
    "subsidy_price": 1.07,
    "meal_price": 6.12,
    "city": "LJUBLJANA",
    "latitude": 46.0646461,
    "longitude": 14.5103219,
    "details_url": "https://www.studentska-prehrana.si/sl/restaurant/Details/3192"
  },
  {
    "name": "Fast food Ajda",
    "rating": 4.0,
    "address": "Ajdovščina 2, 1000 Ljubljana",
    "subsidy_price": 0.85,
    "meal_price": 5.9,
    "city": "LJUBLJANA",
    "latitude": 46.0535684,
    "longitude": 14.5045556,
    "details_url": "https://www.studentska-prehrana.si/sl/restaurant/Details/3282"
  },
  {
    "name": "Fast food LEON",
    "rating": 5.0,
    "address": "Glinškova ploščad 2, 1000 Ljubljana",
    "subsidy_price": 1.35,
    "meal_price": 6.4,
    "city": "LJUBLJANA",
    "latitude": 46.0901762,
    "longitude": 14.5089906,
    "details_url": "https://www.studentska-prehrana.si/sl/restaurant/Details/3382"
  },
  {
    "name": "Fast food Magic",
    "rating": 5.0,
    "address": "Pristaniška ulica 2, 6000 Koper/Capodistria",
    "subsidy_price": 1.47,
    "meal_price": 6.52,
    "city": "KOPER/CAPODISTRIA",
    "latitude": 45.546133,
    "longitude": 13.7260016,
    "details_url": "https://www.studentska-prehrana.si/sl/restaurant/Details/3158"
  },
  {
    "name": "FAST FOOD PRI ŠTUKU",
    "rating": 4.0,
    "address": "Gosposvetska cesta 84, 2000 Maribor",
    "subsidy_price": 2.45,
    "meal_price": 7.5,
    "city": "MARIBOR",
    "latitude": 46.563473,
    "longitude": 15.6278471,
    "details_url": "https://www.studentska-prehrana.si/sl/restaurant/Details/3391"
  },
  {
    "name": "Fast food Slast",
    "rating": 5.0,
    "address": "Slovenska cesta 51, 1000 Ljubljana",
    "subsidy_price": 1.35,
    "meal_price": 6.4,
    "city": "LJUBLJANA",
    "latitude": 46.0556131,
    "longitude": 14.5048633,
    "details_url": "https://www.studentska-prehrana.si/sl/restaurant/Details/3165"
  },
  {
    "name": "FOOD POINT NINETY NINE",
    "rating": 5.0,
    "address": "Ferrarska ulica 5b, 6000 Koper/Capodistria",
    "subsidy_price": 1.45,
    "meal_price": 6.5,
    "city": "KOPER/CAPODISTRIA",
    "latitude": 45.5447372,
    "longitude": 13.733706,
    "details_url": "https://www.studentska-prehrana.si/sl/restaurant/Details/3335"
  },
  {
    "name": "Forum",
    "rating": 4.0,
    "address": "Petkovškovo nabrežje 25, 1000 Ljubljana",
    "subsidy_price": 3.95,
    "meal_price": 9.0,
    "city": "LJUBLJANA",
    "latitude": 46.052123,
    "longitude": 14.509031,
    "details_url": "https://www.studentska-prehrana.si/sl/restaurant/Details/2849"
  },
  {
    "name": "Galaksija Trebnje",
    "rating": null,
    "address": "Podjetniška ulica 13, 8210 Trebnje",
    "subsidy_price": 3.75,
    "meal_price": 8.8,
    "city": "TREBNJE",
    "latitude": 45.9138021,
    "longitude": 15.0270288,
    "details_url": "https://www.studentska-prehrana.si/sl/restaurant/Details/3291"
  },
  {
    "name": "Garač - Restavracija \"M\"",
    "rating": 5.0,
    "address": "Šolska cesta 2, 4220 Škofja Loka",
    "subsidy_price": 3.15,
    "meal_price": 8.2,
    "city": "ŠKOFJA LOKA",
    "latitude": 46.1679455,
    "longitude": 14.3066673,
    "details_url": "https://www.studentska-prehrana.si/sl/restaurant/Details/2591"
  },
  {
    "name": "Gaudi & Naan",
    "rating": 5.0,
    "address": "Trubarjeva 7, 1000 Ljubljana",
    "subsidy_price": 3.95,
    "meal_price": 9.0,
    "city": "LJUBLJANA",
    "latitude": 46.0520133,
    "longitude": 14.5072227,
    "details_url": "https://www.studentska-prehrana.si/sl/restaurant/Details/3308"
  },
  {
    "name": "Gig Bar & Burger",
    "rating": 4.0,
    "address": "Jurčkova cesta 223, 1000 Ljubljana",
    "subsidy_price": 3.95,
    "meal_price": 9.0,
    "city": "LJUBLJANA",
    "latitude": 46.0218387,
    "longitude": 14.5359136,
    "details_url": "https://www.studentska-prehrana.si/sl/restaurant/Details/3223"
  },
  {
    "name": "Gostilna Cankarjev Hram",
    "rating": 5.0,
    "address": "Ljubljanska cesta 1, 1360 Vrhnika",
    "subsidy_price": 3.95,
    "meal_price": 9.0,
    "city": "VRHNIKA",
    "latitude": 45.9670344,
    "longitude": 14.298533,
    "details_url": "https://www.studentska-prehrana.si/sl/restaurant/Details/3301"
  },
  {
    "name": "Gostilna Godec",
    "rating": null,
    "address": "Paplerjeva ulica 12, 1353 Borovnica",
    "subsidy_price": 3.95,
    "meal_price": 9.0,
    "city": "BOROVNICA",
    "latitude": 45.9163676,
    "longitude": 14.3652266,
    "details_url": "https://www.studentska-prehrana.si/sl/restaurant/Details/3352"
  },
  {
    "name": "Gostilna in picerija Guliver",
    "rating": 5.0,
    "address": "Vilharjeva 43, 1000 Ljubljana",
    "subsidy_price": 3.95,
    "meal_price": 9.0,
    "city": "LJUBLJANA",
    "latitude": 46.0600508,
    "longitude": 14.5194079,
    "details_url": "https://www.studentska-prehrana.si/sl/restaurant/Details/3299"
  },
  {
    "name": "Gostilna in picerija Guliver - dostava",
    "rating": 4.0,
    "address": "Vilharjeva 43, 1000 Ljubljana",
    "subsidy_price": 3.95,
    "meal_price": 9.0,
    "city": "LJUBLJANA",
    "latitude": 46.0600508,
    "longitude": 14.5194079,
    "details_url": "https://www.studentska-prehrana.si/sl/restaurant/Details/3300"
  },
  {
    "name": "Gostilna in picerija JERNEJEV HRAM",
    "rating": null,
    "address": "Ljubljanska cesta 22, 8000 Novo mesto",
    "subsidy_price": 3.95,
    "meal_price": 9.0,
    "city": "NOVO MESTO",
    "latitude": 45.8142861,
    "longitude": 15.1536271,
    "details_url": "https://www.studentska-prehrana.si/sl/restaurant/Details/2411"
  },
  {
    "name": "Gostilna in Pizzerija Kovač",
    "rating": null,
    "address": "Graška cesta 64, 1270 Litija",
    "subsidy_price": 3.95,
    "meal_price": 9.0,
    "city": "LITIJA",
    "latitude": 46.0650526,
    "longitude": 14.8172893,
    "details_url": "https://www.studentska-prehrana.si/sl/restaurant/Details/3294"
  },
  {
    "name": "Gostilna Pod Škalcami",
    "rating": 4.0,
    "address": "Oplotniška cesta 5, 3210 Slovenske Konjice",
    "subsidy_price": 0.97,
    "meal_price": 6.02,
    "city": "SLOVENSKE KONJICE",
    "latitude": 46.3424536,
    "longitude": 15.4302266,
    "details_url": "https://www.studentska-prehrana.si/sl/restaurant/Details/2543"
  },
  {
    "name": "Gostilna pod Škalcami - DOSTAVA",
    "rating": 5.0,
    "address": "Oplotniška cesta 5, 3210 Slovenske Konjice",
    "subsidy_price": 0.97,
    "meal_price": 6.02,
    "city": "SLOVENSKE KONJICE",
    "latitude": 46.3424536,
    "longitude": 15.4302266,
    "details_url": "https://www.studentska-prehrana.si/sl/restaurant/Details/2346"
  },
  {
    "name": "Gostilna Stara Brajda",
    "rating": 5.0,
    "address": "Travniška ulica 4, 3000 Celje",
    "subsidy_price": 3.49,
    "meal_price": 8.54,
    "city": "CELJE",
    "latitude": 46.245784,
    "longitude": 15.2672382,
    "details_url": "https://www.studentska-prehrana.si/sl/restaurant/Details/3123"
  },
  {
    "name": "Gostilna Štorklja",
    "rating": 4.0,
    "address": "Šlajmerjeva 1a, 1000 Ljubljana",
    "subsidy_price": 3.95,
    "meal_price": 9.0,
    "city": "LJUBLJANA",
    "latitude": 46.0541021,
    "longitude": 14.5239482,
    "details_url": "https://www.studentska-prehrana.si/sl/restaurant/Details/3126"
  },
  {
    "name": "Gostilna Zlati lev",
    "rating": 4.0,
    "address": "Vodnikov trg 4, 2000 Maribor",
    "subsidy_price": 2.95,
    "meal_price": 8.0,
    "city": "MARIBOR",
    "latitude": 46.5579632,
    "longitude": 15.6409783,
    "details_url": "https://www.studentska-prehrana.si/sl/restaurant/Details/1123"
  },
  {
    "name": "Gostilna Zlati lev - DOSTAVA",
    "rating": 3.0,
    "address": "Vodnikov trg 4, 2000 Maribor",
    "subsidy_price": 3.55,
    "meal_price": 8.6,
    "city": "MARIBOR",
    "latitude": 46.5579632,
    "longitude": 15.6409783,
    "details_url": "https://www.studentska-prehrana.si/sl/restaurant/Details/1124"
  },
  {
    "name": "Gostilnica in pivnica Kratochwill",
    "rating": 4.0,
    "address": "Kolodvorska ulica 14, 1000 Ljubljana",
    "subsidy_price": 3.95,
    "meal_price": 9.0,
    "city": "LJUBLJANA",
    "latitude": 46.0564799,
    "longitude": 14.5099706,
    "details_url": "https://www.studentska-prehrana.si/sl/restaurant/Details/2185"
  },
  {
    "name": "Gostilnica in pivnica Vič",
    "rating": 4.0,
    "address": "Trg mladinskih delovnih brigad 8, 1000 Ljubljana",
    "subsidy_price": 2.97,
    "meal_price": 8.02,
    "city": "LJUBLJANA",
    "latitude": 46.0471605,
    "longitude": 14.4955915,
    "details_url": "https://www.studentska-prehrana.si/sl/restaurant/Details/3060"
  },
  {
    "name": "Gostilnica in pizzerija Kratochwill",
    "rating": 4.0,
    "address": "Jurčkova 225, 1000 Ljubljana",
    "subsidy_price": 3.95,
    "meal_price": 9.0,
    "city": "LJUBLJANA",
    "latitude": 46.0202672,
    "longitude": 14.5366758,
    "details_url": "https://www.studentska-prehrana.si/sl/restaurant/Details/1834"
  },
  {
    "name": "Gostilnica in pizzerija Kratochwill",
    "rating": 4.0,
    "address": "Šmartinska 152, 1000 Ljubljana",
    "subsidy_price": 3.95,
    "meal_price": 9.0,
    "city": "LJUBLJANA",
    "latitude": 46.0693078,
    "longitude": 14.5484774,
    "details_url": "https://www.studentska-prehrana.si/sl/restaurant/Details/1835"
  },
  {
    "name": "GOSTILNICA KENIK",
    "rating": 5.0,
    "address": "Strossmayerjeva ulica 11, 2000 Maribor",
    "subsidy_price": 3.35,
    "meal_price": 8.4,
    "city": "MARIBOR",
    "latitude": 46.5593854,
    "longitude": 15.6416199,
    "details_url": "https://www.studentska-prehrana.si/sl/restaurant/Details/3394"
  },
  {
    "name": "Gostilnica Meta in Bazilika",
    "rating": 4.0,
    "address": "Snežniška ulica 1, 1000 Ljubljana",
    "subsidy_price": 3.95,
    "meal_price": 9.0,
    "city": "LJUBLJANA",
    "latitude": 46.0475489,
    "longitude": 14.4995445,
    "details_url": "https://www.studentska-prehrana.si/sl/restaurant/Details/2995"
  },
  {
    "name": "Gostilnica Namanova",
    "rating": 5.0,
    "address": "Podgorska cesta 2, 2380 Slovenj Gradec",
    "subsidy_price": 2.45,
    "meal_price": 7.5,
    "city": "SLOVENJ GRADEC",
    "latitude": 46.5072539,
    "longitude": 15.0764026,
    "details_url": "https://www.studentska-prehrana.si/sl/restaurant/Details/1213"
  },
  {
    "name": "Gostišče LOKA",
    "rating": 4.0,
    "address": "Župančičevo sprehajališče 2, 8000 Novo mesto",
    "subsidy_price": 3.95,
    "meal_price": 9.0,
    "city": "NOVO MESTO",
    "latitude": 45.8046744,
    "longitude": 15.1616678,
    "details_url": "https://www.studentska-prehrana.si/sl/restaurant/Details/3305"
  },
  {
    "name": "Gostišče na trgu - Hiša kulinarike",
    "rating": 5.0,
    "address": "Glavni trg 30, 8000 Novo mesto",
    "subsidy_price": 3.95,
    "meal_price": 9.0,
    "city": "NOVO MESTO",
    "latitude": 45.8039607,
    "longitude": 15.1694229,
    "details_url": "https://www.studentska-prehrana.si/sl/restaurant/Details/1847"
  },
  {
    "name": "Grashka Deli",
    "rating": null,
    "address": "Trubarjeva cesta 72, 1000 Ljubljana",
    "subsidy_price": 3.95,
    "meal_price": 9.0,
    "city": "LJUBLJANA",
    "latitude": 46.0521055,
    "longitude": 14.5071995,
    "details_url": "https://www.studentska-prehrana.si/sl/restaurant/Details/3354"
  },
  {
    "name": "Gurmanski hram",
    "rating": 4.0,
    "address": "Zagrebška cesta 92, 2000 Maribor",
    "subsidy_price": 3.54,
    "meal_price": 8.59,
    "city": "MARIBOR",
    "latitude": 46.5265465,
    "longitude": 15.6692877,
    "details_url": "https://www.studentska-prehrana.si/sl/restaurant/Details/1188"
  },
  {
    "name": "Gurmanski hram - DOSTAVA",
    "rating": 3.0,
    "address": "Zagrebška cesta 92, 2000 Maribor",
    "subsidy_price": 3.74,
    "meal_price": 8.79,
    "city": "MARIBOR",
    "latitude": 46.5265465,
    "longitude": 15.6692877,
    "details_url": "https://www.studentska-prehrana.si/sl/restaurant/Details/1189"
  },
  {
    "name": "Halo Hong Kong - dostava",
    "rating": 3.0,
    "address": "Litijska cesta 28, 1000 Ljubljana",
    "subsidy_price": 3.95,
    "meal_price": 9.0,
    "city": "LJUBLJANA",
    "latitude": 46.0477759,
    "longitude": 14.5418201,
    "details_url": "https://www.studentska-prehrana.si/sl/restaurant/Details/3284"
  },
  {
    "name": "Halo Katra - dostava",
    "rating": 4.0,
    "address": "Središka ulica 4, 1000 Ljubljana",
    "subsidy_price": 3.95,
    "meal_price": 9.0,
    "city": "LJUBLJANA",
    "latitude": 46.0613483,
    "longitude": 14.527299,
    "details_url": "https://www.studentska-prehrana.si/sl/restaurant/Details/2355"
  },
  {
    "name": "Halo Pinki - dostava",
    "rating": 4.0,
    "address": "Pod ježami 14, 1000 Ljubljana",
    "subsidy_price": 3.95,
    "meal_price": 9.0,
    "city": "LJUBLJANA",
    "latitude": 46.0579436,
    "longitude": 14.5284637,
    "details_url": "https://www.studentska-prehrana.si/sl/restaurant/Details/1514"
  },
  {
    "name": "Halo Shaolin - dostava",
    "rating": 4.0,
    "address": "Hacquetova 5, 1000 Ljubljana",
    "subsidy_price": 3.95,
    "meal_price": 9.0,
    "city": "LJUBLJANA",
    "latitude": 46.0606245,
    "longitude": 14.5146389,
    "details_url": "https://www.studentska-prehrana.si/sl/restaurant/Details/2519"
  },
  {
    "name": "Halo Shaolin - dostava",
    "rating": null,
    "address": "Hacquetova ulica 5, 1000 Ljubljana",
    "subsidy_price": 3.95,
    "meal_price": 9.0,
    "city": "LJUBLJANA",
    "latitude": 46.0606314,
    "longitude": 14.5146277,
    "details_url": "https://www.studentska-prehrana.si/sl/restaurant/Details/3366"
  },
  {
    "name": "Hiša pod gradom",
    "rating": 4.0,
    "address": "Streliška ulica 10, 1000 Ljubljana",
    "subsidy_price": 3.95,
    "meal_price": 9.0,
    "city": "LJUBLJANA",
    "latitude": 46.0493959,
    "longitude": 14.5112233,
    "details_url": "https://www.studentska-prehrana.si/sl/restaurant/Details/2668"
  },
  {
    "name": "Hit wok",
    "rating": 4.0,
    "address": "Čopova 4, 1000 Ljubljana",
    "subsidy_price": 3.95,
    "meal_price": 9.0,
    "city": "LJUBLJANA",
    "latitude": 46.0518465,
    "longitude": 14.5052867,
    "details_url": "https://www.studentska-prehrana.si/sl/restaurant/Details/2430"
  },
  {
    "name": "Hotel restavracija Prunk",
    "rating": null,
    "address": "Partizanska cesta 117, 6210 Sežana",
    "subsidy_price": 2.95,
    "meal_price": 8.0,
    "city": "SEŽANA",
    "latitude": 45.7020205,
    "longitude": 13.8468272,
    "details_url": "https://www.studentska-prehrana.si/sl/restaurant/Details/3373"
  },
  {
    "name": "HotSpot bar&bistro",
    "rating": 4.0,
    "address": "Kardeljeva ploščad 17, 1000 Ljubljana",
    "subsidy_price": 3.95,
    "meal_price": 9.0,
    "city": "LJUBLJANA",
    "latitude": 46.074054,
    "longitude": 14.516428,
    "details_url": "https://www.studentska-prehrana.si/sl/restaurant/Details/2846"
  },
  {
    "name": "HUDA .",
    "rating": 5.0,
    "address": "Cesta prvih borcev 7, 8250 Brežice",
    "subsidy_price": 3.95,
    "meal_price": 9.0,
    "city": "BREŽICE",
    "latitude": 45.9030395,
    "longitude": 15.5923304,
    "details_url": "https://www.studentska-prehrana.si/sl/restaurant/Details/3197"
  },
  {
    "name": "Indijski okusi",
    "rating": 3.0,
    "address": "Litijska cesta 28, 1000 Ljubljana",
    "subsidy_price": 3.95,
    "meal_price": 9.0,
    "city": "LJUBLJANA",
    "latitude": 46.0477759,
    "longitude": 14.5418201,
    "details_url": "https://www.studentska-prehrana.si/sl/restaurant/Details/3283"
  },
  {
    "name": "IT`S WOK O`CLOCK",
    "rating": 5.0,
    "address": "Kotnikova ulica 5, 1000 Ljubljana",
    "subsidy_price": 3.95,
    "meal_price": 9.0,
    "city": "LJUBLJANA",
    "latitude": 46.0542883,
    "longitude": 14.5125403,
    "details_url": "https://www.studentska-prehrana.si/sl/restaurant/Details/3387"
  },
  {
    "name": "JOE PENA´S, mehiška restavracija",
    "rating": 4.0,
    "address": "Cankarjeva cesta 6, 1000 Ljubljana",
    "subsidy_price": 3.95,
    "meal_price": 9.0,
    "city": "LJUBLJANA",
    "latitude": 46.052794,
    "longitude": 14.5025461,
    "details_url": "https://www.studentska-prehrana.si/sl/restaurant/Details/3256"
  },
  {
    "name": "K16",
    "rating": 5.0,
    "address": "Aškerčeva cesta 2, 1000 Ljubljana",
    "subsidy_price": 2.75,
    "meal_price": 7.8,
    "city": "LJUBLJANA",
    "latitude": 46.0467202,
    "longitude": 14.5001974,
    "details_url": "https://www.studentska-prehrana.si/sl/restaurant/Details/3238"
  },
  {
    "name": "Kampus food",
    "rating": 4.0,
    "address": "Pivovarniška ulica 6, 1000 Ljubljana",
    "subsidy_price": 3.45,
    "meal_price": 8.5,
    "city": "LJUBLJANA",
    "latitude": 46.058714,
    "longitude": 14.501792,
    "details_url": "https://www.studentska-prehrana.si/sl/restaurant/Details/3302"
  },
  {
    "name": "KAPITAL",
    "rating": 4.0,
    "address": "Kardeljeva ploščad 17, 1000 Ljubljana",
    "subsidy_price": 0.0,
    "meal_price": 5.05,
    "city": "LJUBLJANA",
    "latitude": 46.074015,
    "longitude": 14.516453,
    "details_url": "https://www.studentska-prehrana.si/sl/restaurant/Details/2581"
  },
  {
    "name": "KIOSK86",
    "rating": null,
    "address": "Kardeljeva ploščad 5, 1000 Ljubljana",
    "subsidy_price": 1.95,
    "meal_price": 7.0,
    "city": "LJUBLJANA",
    "latitude": 46.0741275,
    "longitude": 14.5142215,
    "details_url": "https://www.studentska-prehrana.si/sl/restaurant/Details/3346"
  },
  {
    "name": "Kitajska restavracija AZIJA",
    "rating": 4.0,
    "address": "Gosposvetska ulica 1, 4000 Kranj",
    "subsidy_price": 3.95,
    "meal_price": 9.0,
    "city": "KRANJ",
    "latitude": 46.2461166,
    "longitude": 14.3530853,
    "details_url": "https://www.studentska-prehrana.si/sl/restaurant/Details/2644"
  },
  {
    "name": "Kitajska restavracija Beli labod 2",
    "rating": 5.0,
    "address": "Jurčkova cesta 7, 1000 Ljubljana",
    "subsidy_price": 3.95,
    "meal_price": 9.0,
    "city": "LJUBLJANA",
    "latitude": 46.0325836,
    "longitude": 14.5151778,
    "details_url": "https://www.studentska-prehrana.si/sl/restaurant/Details/3264"
  },
  {
    "name": "Kitajska restavracija Cesarska hiša",
    "rating": 5.0,
    "address": "Ankaranska cesta 5B, 6000 Koper/Capodistria",
    "subsidy_price": 3.35,
    "meal_price": 8.4,
    "city": "KOPER/CAPODISTRIA",
    "latitude": 45.5415072,
    "longitude": 13.7358793,
    "details_url": "https://www.studentska-prehrana.si/sl/restaurant/Details/2264"
  },
  {
    "name": "Kitajska restavracija Dva zmaja",
    "rating": 4.0,
    "address": "Kersnikova 31, 3000 Celje",
    "subsidy_price": 3.95,
    "meal_price": 9.0,
    "city": "CELJE",
    "latitude": 46.2391004,
    "longitude": 15.263821,
    "details_url": "https://www.studentska-prehrana.si/sl/restaurant/Details/2635"
  },
  {
    "name": "Kitajska restavracija Han",
    "rating": 4.0,
    "address": "Moskovska ulica 4, 1000 Ljubljana",
    "subsidy_price": 3.95,
    "meal_price": 9.0,
    "city": "LJUBLJANA",
    "latitude": 46.07048,
    "longitude": 14.5507145,
    "details_url": "https://www.studentska-prehrana.si/sl/restaurant/Details/2950"
  },
  {
    "name": "Kitajska restavracija Han - Aleja",
    "rating": 4.0,
    "address": "Rakuševa ulica 1, 1000 Ljubljana",
    "subsidy_price": 3.95,
    "meal_price": 9.0,
    "city": "LJUBLJANA",
    "latitude": 46.0782899,
    "longitude": 14.4836777,
    "details_url": "https://www.studentska-prehrana.si/sl/restaurant/Details/3118"
  },
  {
    "name": "Kitajska restavracija Leteča zvezda",
    "rating": 4.0,
    "address": "Cesta v mestni log 55, 1000 Ljubljana",
    "subsidy_price": 3.67,
    "meal_price": 8.72,
    "city": "LJUBLJANA",
    "latitude": 46.036207,
    "longitude": 14.489519,
    "details_url": "https://www.studentska-prehrana.si/sl/restaurant/Details/2841"
  },
  {
    "name": "Kitajska restavracija Leteča zvezda - dostava",
    "rating": 4.0,
    "address": "Cesta v mestni log 55, 1000 Ljubljana",
    "subsidy_price": 3.95,
    "meal_price": 9.0,
    "city": "LJUBLJANA",
    "latitude": 46.036207,
    "longitude": 14.489519,
    "details_url": "https://www.studentska-prehrana.si/sl/restaurant/Details/2842"
  },
  {
    "name": "Kitajska restavracija Ming Zhu",
    "rating": 5.0,
    "address": "Bazoviška ulica 6, 5000 Nova Gorica",
    "subsidy_price": 3.75,
    "meal_price": 8.8,
    "city": "NOVA GORICA",
    "latitude": 45.9563076,
    "longitude": 13.6401351,
    "details_url": "https://www.studentska-prehrana.si/sl/restaurant/Details/2933"
  },
  {
    "name": "Kitajska restavracija NANKING",
    "rating": 5.0,
    "address": "Mačkovec 6, 8000 Novo mesto",
    "subsidy_price": 3.55,
    "meal_price": 8.6,
    "city": "NOVO MESTO",
    "latitude": 45.8264393,
    "longitude": 15.1923673,
    "details_url": "https://www.studentska-prehrana.si/sl/restaurant/Details/1415"
  },
  {
    "name": "Kitajska restavracija Novi Šanghai",
    "rating": 5.0,
    "address": "Kapitelska 5, 1000 Ljubljana",
    "subsidy_price": 3.75,
    "meal_price": 8.8,
    "city": "LJUBLJANA",
    "latitude": 46.0508628,
    "longitude": 14.5114751,
    "details_url": "https://www.studentska-prehrana.si/sl/restaurant/Details/1346"
  },
  {
    "name": "Kitajska restavracija Šang Hai",
    "rating": 5.0,
    "address": "Delavska ulica 11, 4270 Jesenice",
    "subsidy_price": 3.75,
    "meal_price": 8.8,
    "city": "JESENICE",
    "latitude": 46.4334456,
    "longitude": 14.0635691,
    "details_url": "https://www.studentska-prehrana.si/sl/restaurant/Details/2446"
  },
  {
    "name": "Kitajska restavracija Zlata srna",
    "rating": 5.0,
    "address": "Ulica Pohorskega bataljona 14, 2000 Maribor",
    "subsidy_price": 3.15,
    "meal_price": 8.2,
    "city": "MARIBOR",
    "latitude": 46.5544914,
    "longitude": 15.6193002,
    "details_url": "https://www.studentska-prehrana.si/sl/restaurant/Details/2761"
  },
  {
    "name": "Kitajska restavracija Zlata srna - DOSTAVA",
    "rating": 4.0,
    "address": "Ulica Pohorskega bataljona 14, 2000 Maribor",
    "subsidy_price": 3.95,
    "meal_price": 9.0,
    "city": "MARIBOR",
    "latitude": 46.5544914,
    "longitude": 15.6193002,
    "details_url": "https://www.studentska-prehrana.si/sl/restaurant/Details/2762"
  },
  {
    "name": "Kitajska restavracija Zlata srna 2",
    "rating": 3.0,
    "address": "Tančeva ulica 1, 2000 Maribor",
    "subsidy_price": 3.15,
    "meal_price": 8.2,
    "city": "MARIBOR",
    "latitude": 46.5394767,
    "longitude": 15.6049297,
    "details_url": "https://www.studentska-prehrana.si/sl/restaurant/Details/3268"
  },
  {
    "name": "Kitajska restavracija Zvezda",
    "rating": 5.0,
    "address": "Loška ulica 10, 2000 Maribor",
    "subsidy_price": 3.55,
    "meal_price": 8.6,
    "city": "MARIBOR",
    "latitude": 46.5566926,
    "longitude": 15.6509716,
    "details_url": "https://www.studentska-prehrana.si/sl/restaurant/Details/1165"
  },
  {
    "name": "Kitajska restavracja Cesarska hiša-DOSTAVA",
    "rating": 5.0,
    "address": "Ankaranska cesta 5B, 6000 Koper/Capodistria",
    "subsidy_price": 3.95,
    "meal_price": 9.0,
    "city": "KOPER/CAPODISTRIA",
    "latitude": 45.5415072,
    "longitude": 13.7358793,
    "details_url": "https://www.studentska-prehrana.si/sl/restaurant/Details/2265"
  },
  {
    "name": "Kitajski dvor",
    "rating": 4.0,
    "address": "Dunajska cesta 29, 1000 Ljubljana",
    "subsidy_price": 2.95,
    "meal_price": 8.0,
    "city": "LJUBLJANA",
    "latitude": 46.061737,
    "longitude": 14.5076175,
    "details_url": "https://www.studentska-prehrana.si/sl/restaurant/Details/1610"
  },
  {
    "name": "Kitajski dvor",
    "rating": 4.0,
    "address": "Teharska cesta 35, 3000 Celje",
    "subsidy_price": 2.95,
    "meal_price": 8.0,
    "city": "CELJE",
    "latitude": 46.2315729,
    "longitude": 15.2762559,
    "details_url": "https://www.studentska-prehrana.si/sl/restaurant/Details/1911"
  },
  {
    "name": "Kitajski dvor - dostava",
    "rating": 4.0,
    "address": "Dunajska cesta 29, 1000 Ljubljana",
    "subsidy_price": 3.95,
    "meal_price": 9.0,
    "city": "LJUBLJANA",
    "latitude": 46.0621392,
    "longitude": 14.5074844,
    "details_url": "https://www.studentska-prehrana.si/sl/restaurant/Details/2117"
  },
  {
    "name": "Kitajski dvor - DOSTAVA",
    "rating": 4.0,
    "address": "Teharska cesta 35, 3000 Celje",
    "subsidy_price": 3.95,
    "meal_price": 9.0,
    "city": "CELJE",
    "latitude": 46.2314098,
    "longitude": 15.2761445,
    "details_url": "https://www.studentska-prehrana.si/sl/restaurant/Details/1164"
  },
  {
    "name": "Kitajsko mesto",
    "rating": 5.0,
    "address": "Slamnikarjeva 1, 1230 Domžale",
    "subsidy_price": 2.85,
    "meal_price": 7.9,
    "city": "DOMŽALE",
    "latitude": 46.1382014,
    "longitude": 14.596938,
    "details_url": "https://www.studentska-prehrana.si/sl/restaurant/Details/1838"
  },
  {
    "name": "Kitajsko mesto - dostava",
    "rating": 5.0,
    "address": "Slamnikarjeva 1, 1230 Domžale",
    "subsidy_price": 3.85,
    "meal_price": 8.9,
    "city": "DOMŽALE",
    "latitude": 46.1382014,
    "longitude": 14.596938,
    "details_url": "https://www.studentska-prehrana.si/sl/restaurant/Details/2772"
  },
  {
    "name": "Klopčič",
    "rating": 5.0,
    "address": "Litostrojska cesta 57, 1000 Ljubljana",
    "subsidy_price": 2.45,
    "meal_price": 7.5,
    "city": "LJUBLJANA",
    "latitude": 46.0816138,
    "longitude": 14.4923584,
    "details_url": "https://www.studentska-prehrana.si/sl/restaurant/Details/1422"
  },
  {
    "name": "KLUBAR GASTROPUB",
    "rating": 4.0,
    "address": "Slovenski trg 7, 4000 Kranj",
    "subsidy_price": 2.95,
    "meal_price": 8.0,
    "city": "KRANJ",
    "latitude": 46.2428879,
    "longitude": 14.3559806,
    "details_url": "https://www.studentska-prehrana.si/sl/restaurant/Details/3140"
  },
  {
    "name": "Kozlovna Poštna",
    "rating": 4.0,
    "address": "Poštna ulica 12, 2000 Maribor",
    "subsidy_price": 3.95,
    "meal_price": 9.0,
    "city": "MARIBOR",
    "latitude": 46.5585966,
    "longitude": 15.6449785,
    "details_url": "https://www.studentska-prehrana.si/sl/restaurant/Details/3121"
  },
  {
    "name": "Leonard",
    "rating": 3.0,
    "address": "Trg mladinskih delovnih brigad 12, 1000 Ljubljana",
    "subsidy_price": 0.0,
    "meal_price": 5.05,
    "city": "LJUBLJANA",
    "latitude": 46.0479552,
    "longitude": 14.4962925,
    "details_url": "https://www.studentska-prehrana.si/sl/restaurant/Details/2145"
  },
  {
    "name": "Leteča zvezda",
    "rating": 5.0,
    "address": "Kvedrova cesta 5a, 1000 Ljubljana",
    "subsidy_price": 2.45,
    "meal_price": 7.5,
    "city": "LJUBLJANA",
    "latitude": 46.070312,
    "longitude": 14.541963,
    "details_url": "https://www.studentska-prehrana.si/sl/restaurant/Details/2844"
  },
  {
    "name": "LIPCA - INDEKS",
    "rating": 4.0,
    "address": "Borštnikov trg 3a, 1000 Ljubljana",
    "subsidy_price": 0.0,
    "meal_price": 5.05,
    "city": "LJUBLJANA",
    "latitude": 46.047896,
    "longitude": 14.4987744,
    "details_url": "https://www.studentska-prehrana.si/sl/restaurant/Details/2726"
  },
  {
    "name": "Lokal P8",
    "rating": 1.0,
    "address": "Plemljeva 8, 1210 Ljubljana - Šentvid",
    "subsidy_price": 3.95,
    "meal_price": 9.0,
    "city": "LJUBLJANA - ŠENTVID",
    "latitude": 46.1037922,
    "longitude": 14.4589447,
    "details_url": "https://www.studentska-prehrana.si/sl/restaurant/Details/3297"
  },
  {
    "name": "LONCHE Street Diner",
    "rating": null,
    "address": "Loška ulica 13, 2000 Maribor",
    "subsidy_price": 3.95,
    "meal_price": 9.0,
    "city": "MARIBOR",
    "latitude": 46.5567401,
    "longitude": 15.653565,
    "details_url": "https://www.studentska-prehrana.si/sl/restaurant/Details/3393"
  },
  {
    "name": "Loving Hut",
    "rating": 5.0,
    "address": "Gosposvetska cesta 43a, 2000 Maribor",
    "subsidy_price": 2.97,
    "meal_price": 8.02,
    "city": "MARIBOR",
    "latitude": 46.561508,
    "longitude": 15.63406,
    "details_url": "https://www.studentska-prehrana.si/sl/restaurant/Details/2331"
  },
  {
    "name": "LUNCH BOX",
    "rating": 5.0,
    "address": "Gosposvetska cesta 19, 2000 Maribor",
    "subsidy_price": 0.05,
    "meal_price": 5.1,
    "city": "MARIBOR",
    "latitude": 46.5607589,
    "longitude": 15.6392304,
    "details_url": "https://www.studentska-prehrana.si/sl/restaurant/Details/3322"
  },
  {
    "name": "MAGMAX",
    "rating": null,
    "address": "Industrijska cesta 11, 5000 Nova Gorica",
    "subsidy_price": 2.95,
    "meal_price": 8.0,
    "city": "NOVA GORICA",
    "latitude": 45.9531105,
    "longitude": 13.6694122,
    "details_url": "https://www.studentska-prehrana.si/sl/restaurant/Details/3368"
  },
  {
    "name": "MANGO SNACKS",
    "rating": 4.0,
    "address": "Gosposvetska cesta 83, 2000 Maribor",
    "subsidy_price": 0.0,
    "meal_price": 5.05,
    "city": "MARIBOR",
    "latitude": 46.5628737,
    "longitude": 15.6271258,
    "details_url": "https://www.studentska-prehrana.si/sl/restaurant/Details/3327"
  },
  {
    "name": "MC PANDA",
    "rating": 4.0,
    "address": "Ulica Vita Kraigherja 5, 2000 Maribor",
    "subsidy_price": 0.05,
    "meal_price": 5.1,
    "city": "MARIBOR",
    "latitude": 46.5587501,
    "longitude": 15.6505413,
    "details_url": "https://www.studentska-prehrana.si/sl/restaurant/Details/3205"
  },
  {
    "name": "McDonald s restavracija  - Murska Sobota",
    "rating": 4.0,
    "address": "Nemčavci 1d, 9000 Murska Sobota",
    "subsidy_price": 2.75,
    "meal_price": 7.8,
    "city": "MURSKA SOBOTA",
    "latitude": 46.6694982,
    "longitude": 16.1775262,
    "details_url": "https://www.studentska-prehrana.si/sl/restaurant/Details/3122"
  },
  {
    "name": "McDonald´s restavracija - Swaty",
    "rating": 4.0,
    "address": "Tržaška 6, 2000 Maribor",
    "subsidy_price": 2.75,
    "meal_price": 7.8,
    "city": "MARIBOR",
    "latitude": 46.54175582,
    "longitude": 15.64776005,
    "details_url": "https://www.studentska-prehrana.si/sl/restaurant/Details/1182"
  },
  {
    "name": "McDonald´s restavracija Europark",
    "rating": 4.0,
    "address": "Pobreška 18, 2000 Maribor",
    "subsidy_price": 2.75,
    "meal_price": 7.8,
    "city": "MARIBOR",
    "latitude": 46.55381546,
    "longitude": 15.6514902,
    "details_url": "https://www.studentska-prehrana.si/sl/restaurant/Details/1185"
  },
  {
    "name": "McDonald´s restavracija Ptujska",
    "rating": 4.0,
    "address": "Ptujska 106, 2000 Maribor",
    "subsidy_price": 2.75,
    "meal_price": 7.8,
    "city": "MARIBOR",
    "latitude": 46.5349073,
    "longitude": 15.6622092,
    "details_url": "https://www.studentska-prehrana.si/sl/restaurant/Details/1184"
  },
  {
    "name": "McDonald´s restavracija Studenci",
    "rating": 5.0,
    "address": "Ulica Jožeta Košarja 2, 2000 Maribor",
    "subsidy_price": 2.75,
    "meal_price": 7.8,
    "city": "MARIBOR",
    "latitude": 46.5315527,
    "longitude": 15.6773941,
    "details_url": "https://www.studentska-prehrana.si/sl/restaurant/Details/3270"
  },
  {
    "name": "McDonald´s restavracija Velenje",
    "rating": 4.0,
    "address": "Kidričeva 2b, 3320 Velenje",
    "subsidy_price": 2.75,
    "meal_price": 7.8,
    "city": "VELENJE",
    "latitude": 46.35996095,
    "longitude": 15.11980472,
    "details_url": "https://www.studentska-prehrana.si/sl/restaurant/Details/1179"
  },
  {
    "name": "McDonald's Petrol Maribor",
    "rating": 3.0,
    "address": "Na Polju 24, 2000 Maribor",
    "subsidy_price": 2.75,
    "meal_price": 7.8,
    "city": "MARIBOR",
    "latitude": 46.5334546,
    "longitude": 15.6993819,
    "details_url": "https://www.studentska-prehrana.si/sl/restaurant/Details/3326"
  },
  {
    "name": "McDonald's restavracij - Odiseja",
    "rating": 4.0,
    "address": "Moskovska ulica 11, 1000 Ljubljana",
    "subsidy_price": 2.75,
    "meal_price": 7.8,
    "city": "LJUBLJANA",
    "latitude": 46.06947022,
    "longitude": 14.54737593,
    "details_url": "https://www.studentska-prehrana.si/sl/restaurant/Details/1380"
  },
  {
    "name": "McDonald's restavracija - ALEJA",
    "rating": 4.0,
    "address": "Rakuševa ulica 1, 1000 Ljubljana",
    "subsidy_price": 2.75,
    "meal_price": 7.8,
    "city": "LJUBLJANA",
    "latitude": 46.0782899,
    "longitude": 14.4836777,
    "details_url": "https://www.studentska-prehrana.si/sl/restaurant/Details/3107"
  },
  {
    "name": "McDonald's restavracija - Barje jug",
    "rating": 4.0,
    "address": "Cesta dveh cesarjev 73, 1000 Ljubljana",
    "subsidy_price": 2.75,
    "meal_price": 7.8,
    "city": "LJUBLJANA",
    "latitude": 46.0288734,
    "longitude": 14.4784293,
    "details_url": "https://www.studentska-prehrana.si/sl/restaurant/Details/3246"
  },
  {
    "name": "McDonald's restavracija - Barje sever",
    "rating": 5.0,
    "address": "Cesta dveh cesarjev 71, 1000 Ljubljana",
    "subsidy_price": 2.75,
    "meal_price": 7.8,
    "city": "LJUBLJANA",
    "latitude": 46.0291537,
    "longitude": 14.4818821,
    "details_url": "https://www.studentska-prehrana.si/sl/restaurant/Details/3247"
  },
  {
    "name": "McDonald's restavracija - Cankarjeva",
    "rating": 4.0,
    "address": "Cankarjeva cesta 4, 1000 Ljubljana",
    "subsidy_price": 2.75,
    "meal_price": 7.8,
    "city": "LJUBLJANA",
    "latitude": 46.0527153,
    "longitude": 14.5028959,
    "details_url": "https://www.studentska-prehrana.si/sl/restaurant/Details/3189"
  },
  {
    "name": "McDonald's restavracija - Celje Drive",
    "rating": 3.0,
    "address": "Mariborska cesta 164, 3000 Celje",
    "subsidy_price": 2.75,
    "meal_price": 7.8,
    "city": "CELJE",
    "latitude": 46.247996,
    "longitude": 15.280446,
    "details_url": "https://www.studentska-prehrana.si/sl/restaurant/Details/2868"
  },
  {
    "name": "McDonald's restavracija - Celovška",
    "rating": 4.0,
    "address": "Celovška cesta 170, 1000 Ljubljana",
    "subsidy_price": 2.75,
    "meal_price": 7.8,
    "city": "LJUBLJANA",
    "latitude": 46.0749608,
    "longitude": 14.4846712,
    "details_url": "https://www.studentska-prehrana.si/sl/restaurant/Details/1341"
  },
  {
    "name": "McDonald's restavracija - Center",
    "rating": 4.0,
    "address": "Čopova 14, 1000 Ljubljana",
    "subsidy_price": 2.75,
    "meal_price": 7.8,
    "city": "LJUBLJANA",
    "latitude": 46.05200055,
    "longitude": 14.50488239,
    "details_url": "https://www.studentska-prehrana.si/sl/restaurant/Details/1377"
  },
  {
    "name": "McDonald's restavracija - Domžale",
    "rating": 4.0,
    "address": "Breznikova 15, 1230 Domžale",
    "subsidy_price": 2.75,
    "meal_price": 7.8,
    "city": "DOMŽALE",
    "latitude": 46.1468404,
    "longitude": 14.5975108,
    "details_url": "https://www.studentska-prehrana.si/sl/restaurant/Details/1342"
  },
  {
    "name": "McDonald's restavracija - Kranj",
    "rating": 4.0,
    "address": "Cesta Boštjana Hladnika 7, 4000 Kranj",
    "subsidy_price": 2.75,
    "meal_price": 7.8,
    "city": "KRANJ",
    "latitude": 46.232304,
    "longitude": 14.369412,
    "details_url": "https://www.studentska-prehrana.si/sl/restaurant/Details/2866"
  },
  {
    "name": "McDonald's restavracija - Lesce",
    "rating": 3.0,
    "address": "Hraška cesta 21a, 4248 Lesce",
    "subsidy_price": 2.75,
    "meal_price": 7.8,
    "city": "LESCE",
    "latitude": 46.3612077,
    "longitude": 14.160096,
    "details_url": "https://www.studentska-prehrana.si/sl/restaurant/Details/3279"
  },
  {
    "name": "McDonald's restavracija - Novo mesto",
    "rating": 5.0,
    "address": "Ljubljanska 24, 8000 Novo mesto",
    "subsidy_price": 2.75,
    "meal_price": 7.8,
    "city": "NOVO MESTO",
    "latitude": 45.81480455,
    "longitude": 15.15417151,
    "details_url": "https://www.studentska-prehrana.si/sl/restaurant/Details/1381"
  },
  {
    "name": "McDonald's restavracija - Rudnik",
    "rating": 4.0,
    "address": "Premrlova ulica 12, 1000 Ljubljana",
    "subsidy_price": 2.75,
    "meal_price": 7.8,
    "city": "LJUBLJANA",
    "latitude": 46.0175171,
    "longitude": 14.53007184,
    "details_url": "https://www.studentska-prehrana.si/sl/restaurant/Details/1536"
  },
  {
    "name": "McDonald's restavracija - Supernova Rudnik",
    "rating": 4.0,
    "address": "Jurčkova cesta 223, 1000 Ljubljana",
    "subsidy_price": 2.75,
    "meal_price": 7.8,
    "city": "LJUBLJANA",
    "latitude": 46.0218387,
    "longitude": 14.5359136,
    "details_url": "https://www.studentska-prehrana.si/sl/restaurant/Details/3188"
  },
  {
    "name": "McDonald's restavracija - Šmartinka Drive",
    "rating": 4.0,
    "address": "Šmartinska 147, 1000 Ljubljana",
    "subsidy_price": 2.75,
    "meal_price": 7.8,
    "city": "LJUBLJANA",
    "latitude": 46.0694793,
    "longitude": 14.5408094,
    "details_url": "https://www.studentska-prehrana.si/sl/restaurant/Details/3164"
  },
  {
    "name": "McDonald's restavracija - Žito",
    "rating": 4.0,
    "address": "Moskovska ulica 1, 1000 Ljubljana",
    "subsidy_price": 2.75,
    "meal_price": 7.8,
    "city": "LJUBLJANA",
    "latitude": 46.06947767,
    "longitude": 14.54738666,
    "details_url": "https://www.studentska-prehrana.si/sl/restaurant/Details/1378"
  },
  {
    "name": "McDonald's restavracija Koper",
    "rating": 4.0,
    "address": "Ankaranska 4, 6000 Koper/Capodistria",
    "subsidy_price": 2.75,
    "meal_price": 7.8,
    "city": "KOPER/CAPODISTRIA",
    "latitude": 45.54149179,
    "longitude": 13.73655012,
    "details_url": "https://www.studentska-prehrana.si/sl/restaurant/Details/2253"
  },
  {
    "name": "McDonald's restavracija Nova Gorica",
    "rating": 4.0,
    "address": "Vojkova cesta 111, 5000 Nova Gorica",
    "subsidy_price": 2.75,
    "meal_price": 7.8,
    "city": "NOVA GORICA",
    "latitude": 45.954703,
    "longitude": 13.653513,
    "details_url": "https://www.studentska-prehrana.si/sl/restaurant/Details/2815"
  },
  {
    "name": "McDonald's Supernova Koper",
    "rating": 4.0,
    "address": "Dolinska cesta 1a, 6000 Koper/Capodistria",
    "subsidy_price": 2.75,
    "meal_price": 7.8,
    "city": "KOPER/CAPODISTRIA",
    "latitude": 45.5307743,
    "longitude": 13.7318276,
    "details_url": "https://www.studentska-prehrana.si/sl/restaurant/Details/3330"
  },
  {
    "name": "ME GUSTA",
    "rating": 5.0,
    "address": "Jezdarska ulica 8b (vhod v lokal iz Žitne ulice 4), 2000 Maribor",
    "subsidy_price": 1.95,
    "meal_price": 7.0,
    "city": "MARIBOR",
    "latitude": 46.5513718,
    "longitude": 15.6409209,
    "details_url": "https://www.studentska-prehrana.si/sl/restaurant/Details/2648"
  },
  {
    "name": "Meating pub & restavracija",
    "rating": 3.0,
    "address": "Mlinska ulica 2, 2000 Maribor",
    "subsidy_price": 3.55,
    "meal_price": 8.6,
    "city": "MARIBOR",
    "latitude": 46.5603608,
    "longitude": 15.6553755,
    "details_url": "https://www.studentska-prehrana.si/sl/restaurant/Details/3138"
  },
  {
    "name": "Mehiška restavracija Imperio mexicano",
    "rating": 4.0,
    "address": "Moskovska ulica 4, 1000 Ljubljana",
    "subsidy_price": 3.95,
    "meal_price": 9.0,
    "city": "LJUBLJANA",
    "latitude": 46.0702369,
    "longitude": 14.5490389,
    "details_url": "https://www.studentska-prehrana.si/sl/restaurant/Details/1407"
  },
  {
    "name": "Menza BF",
    "rating": 4.0,
    "address": "Večna pot 111, 1000 Ljubljana",
    "subsidy_price": 3.15,
    "meal_price": 8.2,
    "city": "LJUBLJANA",
    "latitude": 46.0512363,
    "longitude": 14.4699693,
    "details_url": "https://www.studentska-prehrana.si/sl/restaurant/Details/2023"
  },
  {
    "name": "Menza FE",
    "rating": 5.0,
    "address": "Tržaška cesta 25, 1000 Ljubljana",
    "subsidy_price": 3.15,
    "meal_price": 8.2,
    "city": "LJUBLJANA",
    "latitude": 46.0448994,
    "longitude": 14.4892307,
    "details_url": "https://www.studentska-prehrana.si/sl/restaurant/Details/2521"
  },
  {
    "name": "MM PANDA",
    "rating": 5.0,
    "address": "Koroška cesta 9, 2000 Maribor",
    "subsidy_price": 2.05,
    "meal_price": 7.1,
    "city": "MARIBOR",
    "latitude": 46.5576636,
    "longitude": 15.643214,
    "details_url": "https://www.studentska-prehrana.si/sl/restaurant/Details/2360"
  },
  {
    "name": "Moj cmok",
    "rating": null,
    "address": "Pogačarjev trg 1, 1000 Ljubljana",
    "subsidy_price": 3.95,
    "meal_price": 9.0,
    "city": "LJUBLJANA",
    "latitude": 46.0511981,
    "longitude": 14.5085112,
    "details_url": "https://www.studentska-prehrana.si/sl/restaurant/Details/3357"
  },
  {
    "name": "Moji štruklji BTC",
    "rating": 5.0,
    "address": "Italijanska ulica 7, 1000 Ljubljana",
    "subsidy_price": 3.95,
    "meal_price": 9.0,
    "city": "LJUBLJANA",
    "latitude": 46.063985,
    "longitude": 14.5443996,
    "details_url": "https://www.studentska-prehrana.si/sl/restaurant/Details/3362"
  },
  {
    "name": "Namaste Grab & Go",
    "rating": 5.0,
    "address": "Tomšičeva 2, 1000 Ljubljana",
    "subsidy_price": 1.95,
    "meal_price": 7.0,
    "city": "LJUBLJANA",
    "latitude": 46.0522881,
    "longitude": 14.5027386,
    "details_url": "https://www.studentska-prehrana.si/sl/restaurant/Details/3290"
  },
  {
    "name": "Namaste Indian Express",
    "rating": 5.0,
    "address": "Trubarjeva ulica 31, 1000 Ljubljana",
    "subsidy_price": 2.95,
    "meal_price": 8.0,
    "city": "LJUBLJANA",
    "latitude": 46.052474,
    "longitude": 14.509783,
    "details_url": "https://www.studentska-prehrana.si/sl/restaurant/Details/2828"
  },
  {
    "name": "News Cafe",
    "rating": 4.0,
    "address": "Obala 4F, 6320 Portorož/Portorose",
    "subsidy_price": 3.95,
    "meal_price": 9.0,
    "city": "PORTOROŽ/PORTOROSE",
    "latitude": 45.5148393,
    "longitude": 13.5719437,
    "details_url": "https://www.studentska-prehrana.si/sl/restaurant/Details/2249"
  },
  {
    "name": "Niam niam garden",
    "rating": 5.0,
    "address": "Trubarjeva cesta 50, 1000 Ljubljana",
    "subsidy_price": 3.95,
    "meal_price": 9.0,
    "city": "LJUBLJANA",
    "latitude": 46.0522981,
    "longitude": 14.5122594,
    "details_url": "https://www.studentska-prehrana.si/sl/restaurant/Details/3359"
  },
  {
    "name": "NJAMY - dostava",
    "rating": 4.0,
    "address": "Šorlijeva 12, 4000 Kranj",
    "subsidy_price": 3.95,
    "meal_price": 9.0,
    "city": "KRANJ",
    "latitude": 46.2519474,
    "longitude": 14.3572697,
    "details_url": "https://www.studentska-prehrana.si/sl/restaurant/Details/3167"
  },
  {
    "name": "Norma 23",
    "rating": 4.0,
    "address": "Adamič-Lundrovo nabrežje 1, 1000 Ljubljana",
    "subsidy_price": 3.95,
    "meal_price": 9.0,
    "city": "LJUBLJANA",
    "latitude": 46.0510563,
    "longitude": 14.5065665,
    "details_url": "https://www.studentska-prehrana.si/sl/restaurant/Details/3229"
  },
  {
    "name": "Okrepčevalnica - Diner kino gledališče Bežigrad",
    "rating": 5.0,
    "address": "Linhartova 11, 1000 Ljubljana",
    "subsidy_price": 3.43,
    "meal_price": 8.48,
    "city": "LJUBLJANA",
    "latitude": 46.0646461,
    "longitude": 14.5103219,
    "details_url": "https://www.studentska-prehrana.si/sl/restaurant/Details/2732"
  },
  {
    "name": "Okrepčevalnica - pizzerija Maks",
    "rating": 4.0,
    "address": "Dunajska cesta 111, 1000 Ljubljana",
    "subsidy_price": 2.85,
    "meal_price": 7.9,
    "city": "LJUBLJANA",
    "latitude": 46.0745055,
    "longitude": 14.5113788,
    "details_url": "https://www.studentska-prehrana.si/sl/restaurant/Details/1683"
  },
  {
    "name": "Okrepčevalnica \"Medicinska fakulteta\"",
    "rating": null,
    "address": "Taborska ulica 8, 2000 Maribor",
    "subsidy_price": 0.0,
    "meal_price": 5.05,
    "city": "MARIBOR",
    "latitude": 46.5548619,
    "longitude": 15.6469443,
    "details_url": "https://www.studentska-prehrana.si/sl/restaurant/Details/3397"
  },
  {
    "name": "Okrepčevalnica Ajda",
    "rating": 5.0,
    "address": "Ajdovščina 4, 1000 Ljubljana",
    "subsidy_price": 2.95,
    "meal_price": 8.0,
    "city": "LJUBLJANA",
    "latitude": 46.0533642,
    "longitude": 14.5052036,
    "details_url": "https://www.studentska-prehrana.si/sl/restaurant/Details/2944"
  },
  {
    "name": "Okrepčevalnica FERI",
    "rating": 5.0,
    "address": "Smetanova ulica 17, 2000 Maribor",
    "subsidy_price": 0.0,
    "meal_price": 5.05,
    "city": "MARIBOR",
    "latitude": 46.5594876,
    "longitude": 15.6392718,
    "details_url": "https://www.studentska-prehrana.si/sl/restaurant/Details/2347"
  },
  {
    "name": "Okrepčevalnica HAM-HAM",
    "rating": 3.0,
    "address": "Celjska cesta 3, 3252 Rogatec",
    "subsidy_price": 3.95,
    "meal_price": 9.0,
    "city": "ROGATEC",
    "latitude": 46.224141,
    "longitude": 15.7005677,
    "details_url": "https://www.studentska-prehrana.si/sl/restaurant/Details/3342"
  },
  {
    "name": "Okrepčevalnica IZUM",
    "rating": 5.0,
    "address": "Prešernova 17, 2000 Maribor",
    "subsidy_price": 2.95,
    "meal_price": 8.0,
    "city": "MARIBOR",
    "latitude": 46.5636048,
    "longitude": 15.6514339,
    "details_url": "https://www.studentska-prehrana.si/sl/restaurant/Details/2652"
  },
  {
    "name": "Okrepčevalnica Marijanca",
    "rating": 4.0,
    "address": "Večna pot 113, 1000 Ljubljana",
    "subsidy_price": 1.71,
    "meal_price": 6.76,
    "city": "LJUBLJANA",
    "latitude": 46.0514769,
    "longitude": 14.4802775,
    "details_url": "https://www.studentska-prehrana.si/sl/restaurant/Details/3200"
  },
  {
    "name": "OKREPČEVALNICA PINELA",
    "rating": 5.0,
    "address": "Obala 99, 6320 Portorož/Portorose",
    "subsidy_price": 3.95,
    "meal_price": 9.0,
    "city": "PORTOROŽ/PORTOROSE",
    "latitude": 45.5068887,
    "longitude": 13.6004072,
    "details_url": "https://www.studentska-prehrana.si/sl/restaurant/Details/3333"
  },
  {
    "name": "Okrepčevalnica Rock Cafe",
    "rating": null,
    "address": "Ukmarjev trg 5, 6000 Koper/Capodistria",
    "subsidy_price": 3.95,
    "meal_price": 9.0,
    "city": "KOPER/CAPODISTRIA",
    "latitude": 45.5489402,
    "longitude": 13.7252892,
    "details_url": "https://www.studentska-prehrana.si/sl/restaurant/Details/3372"
  },
  {
    "name": "OLA ENKA",
    "rating": 5.0,
    "address": "Baragova ulica 16, 1000 Ljubljana",
    "subsidy_price": 3.95,
    "meal_price": 9.0,
    "city": "LJUBLJANA",
    "latitude": 46.0759757,
    "longitude": 14.5170092,
    "details_url": "https://www.studentska-prehrana.si/sl/restaurant/Details/1817"
  },
  {
    "name": "O-LALA",
    "rating": 4.0,
    "address": "Tržaška cesta 18, 1000 Ljubljana",
    "subsidy_price": 3.95,
    "meal_price": 9.0,
    "city": "LJUBLJANA",
    "latitude": 46.0456937,
    "longitude": 14.4895928,
    "details_url": "https://www.studentska-prehrana.si/sl/restaurant/Details/3296"
  },
  {
    "name": "ON THAI Rudnik",
    "rating": 5.0,
    "address": "Jurčkova cesta 225, 1000 Ljubljana",
    "subsidy_price": 3.47,
    "meal_price": 8.52,
    "city": "LJUBLJANA",
    "latitude": 46.0202672,
    "longitude": 14.5366758,
    "details_url": "https://www.studentska-prehrana.si/sl/restaurant/Details/3318"
  },
  {
    "name": "ON THAI Šiška",
    "rating": 5.0,
    "address": "Cesta ljubljanske brigade 33, 1000 Ljubljana",
    "subsidy_price": 3.47,
    "meal_price": 8.52,
    "city": "LJUBLJANA",
    "latitude": 46.0883544,
    "longitude": 14.4771772,
    "details_url": "https://www.studentska-prehrana.si/sl/restaurant/Details/3319"
  },
  {
    "name": "ORIENT EXPRESS, samopostrežna restavracija",
    "rating": 5.0,
    "address": "Kolodvorska 11, 1000 Ljubljana",
    "subsidy_price": 3.05,
    "meal_price": 8.1,
    "city": "LJUBLJANA",
    "latitude": 46.0566129,
    "longitude": 14.5094147,
    "details_url": "https://www.studentska-prehrana.si/sl/restaurant/Details/3169"
  },
  {
    "name": "Oštarija City center Celje",
    "rating": 5.0,
    "address": "Mariborska cesta 100, 3000 Celje",
    "subsidy_price": 3.95,
    "meal_price": 9.0,
    "city": "CELJE",
    "latitude": 46.2419031,
    "longitude": 15.2774074,
    "details_url": "https://www.studentska-prehrana.si/sl/restaurant/Details/3035"
  },
  {
    "name": "Oštarija Rudolfswerth",
    "rating": 3.0,
    "address": "Kandijska cesta 35, 8000 Novo mesto",
    "subsidy_price": 3.35,
    "meal_price": 8.4,
    "city": "NOVO MESTO",
    "latitude": 45.8002137,
    "longitude": 15.174038,
    "details_url": "https://www.studentska-prehrana.si/sl/restaurant/Details/1471"
  },
  {
    "name": "P8 - dostava",
    "rating": 4.0,
    "address": "Plemeljeva 8, 1210 Ljubljana - Šentvid",
    "subsidy_price": 3.95,
    "meal_price": 9.0,
    "city": "LJUBLJANA - ŠENTVID",
    "latitude": 46.1037922,
    "longitude": 14.4589447,
    "details_url": "https://www.studentska-prehrana.si/sl/restaurant/Details/3298"
  },
  {
    "name": "Palača SMELT",
    "rating": 4.0,
    "address": "Dunajska 160, 1000 Ljubljana",
    "subsidy_price": 2.77,
    "meal_price": 7.82,
    "city": "LJUBLJANA",
    "latitude": 46.082788,
    "longitude": 14.5139668,
    "details_url": "https://www.studentska-prehrana.si/sl/restaurant/Details/2753"
  },
  {
    "name": "Papagayo",
    "rating": 4.0,
    "address": "Gosposka ulica 6, 2000 Maribor",
    "subsidy_price": 3.95,
    "meal_price": 9.0,
    "city": "MARIBOR",
    "latitude": 46.557861,
    "longitude": 15.646434,
    "details_url": "https://www.studentska-prehrana.si/sl/restaurant/Details/2863"
  },
  {
    "name": "PE Dijaški dom Celje",
    "rating": 4.0,
    "address": "Ljubljanska cesta 21, 3000 Celje",
    "subsidy_price": 2.95,
    "meal_price": 8.0,
    "city": "CELJE",
    "latitude": 46.2327648,
    "longitude": 15.2565348,
    "details_url": "https://www.studentska-prehrana.si/sl/restaurant/Details/2623"
  },
  {
    "name": "Pe Hiša kruha junior",
    "rating": 5.0,
    "address": "Tyrševa 2, 2000 Maribor",
    "subsidy_price": 0.0,
    "meal_price": 5.05,
    "city": "MARIBOR",
    "latitude": 46.5605193,
    "longitude": 15.6467651,
    "details_url": "https://www.studentska-prehrana.si/sl/restaurant/Details/3392"
  },
  {
    "name": "PE LUCKY STREET FOOD",
    "rating": 5.0,
    "address": "Vetrinjska ulica 9a, 2000 Maribor",
    "subsidy_price": 1.15,
    "meal_price": 6.2,
    "city": "MARIBOR",
    "latitude": 46.5577873,
    "longitude": 15.6479782,
    "details_url": "https://www.studentska-prehrana.si/sl/restaurant/Details/3390"
  },
  {
    "name": "PE Marjetica",
    "rating": 5.0,
    "address": "Tobačna ulica 5, 1000 Ljubljana",
    "subsidy_price": 2.53,
    "meal_price": 7.58,
    "city": "LJUBLJANA",
    "latitude": 46.0493297,
    "longitude": 14.4938602,
    "details_url": "https://www.studentska-prehrana.si/sl/restaurant/Details/1424"
  },
  {
    "name": "Picerija Barjan",
    "rating": null,
    "address": "Cesta v mestni log 55, 1000 Ljubljana",
    "subsidy_price": 3.95,
    "meal_price": 9.0,
    "city": "LJUBLJANA",
    "latitude": 46.0361537,
    "longitude": 14.4895929,
    "details_url": "https://www.studentska-prehrana.si/sl/restaurant/Details/3353"
  },
  {
    "name": "PICERIJA CITYBURGER",
    "rating": 4.0,
    "address": "Ankaranska 7, 6000 Koper/Capodistria",
    "subsidy_price": 3.95,
    "meal_price": 9.0,
    "city": "KOPER/CAPODISTRIA",
    "latitude": 45.5458243,
    "longitude": 13.7403981,
    "details_url": "https://www.studentska-prehrana.si/sl/restaurant/Details/2243"
  },
  {
    "name": "Picerija ERA",
    "rating": 4.0,
    "address": "Pod Trško goro 83, 8000 Novo mesto",
    "subsidy_price": 3.75,
    "meal_price": 8.8,
    "city": "NOVO MESTO",
    "latitude": 45.8225275,
    "longitude": 15.1842413,
    "details_url": "https://www.studentska-prehrana.si/sl/restaurant/Details/2551"
  },
  {
    "name": "Picerija in pivnica KUFR",
    "rating": 3.0,
    "address": "Glavni trg 43, 2380 Slovenj Gradec",
    "subsidy_price": 2.95,
    "meal_price": 8.0,
    "city": "SLOVENJ GRADEC",
    "latitude": 46.5084742,
    "longitude": 15.0782194,
    "details_url": "https://www.studentska-prehrana.si/sl/restaurant/Details/3142"
  },
  {
    "name": "Picerija Pavon",
    "rating": null,
    "address": "Njegoševa ulica 6k, 1000 Ljubljana",
    "subsidy_price": 3.95,
    "meal_price": 9.0,
    "city": "LJUBLJANA",
    "latitude": 46.0534434,
    "longitude": 14.5195208,
    "details_url": "https://www.studentska-prehrana.si/sl/restaurant/Details/3281"
  },
  {
    "name": "Picestavracija Boccaccio",
    "rating": 5.0,
    "address": "Celovška cesta 249, 1000 Ljubljana",
    "subsidy_price": 3.95,
    "meal_price": 9.0,
    "city": "LJUBLJANA",
    "latitude": 46.0808062,
    "longitude": 14.4786087,
    "details_url": "https://www.studentska-prehrana.si/sl/restaurant/Details/1794"
  },
  {
    "name": "Pisana skleda",
    "rating": 5.0,
    "address": "Zemljemerska ulica 7, 1000 Ljubljana",
    "subsidy_price": 3.95,
    "meal_price": 9.0,
    "city": "LJUBLJANA",
    "latitude": 46.0473472,
    "longitude": 14.5172059,
    "details_url": "https://www.studentska-prehrana.si/sl/restaurant/Details/3361"
  },
  {
    "name": "Pizza SALAMON - dostava",
    "rating": 4.0,
    "address": "Vilharjeva 43, 1000 Ljubljana",
    "subsidy_price": 3.95,
    "meal_price": 9.0,
    "city": "LJUBLJANA",
    "latitude": 46.0300713,
    "longitude": 14.5324491,
    "details_url": "https://www.studentska-prehrana.si/sl/restaurant/Details/2595"
  },
  {
    "name": "Pizzeria Briksen",
    "rating": 4.0,
    "address": "Ljubljanska cesta 5, 4260 Bled",
    "subsidy_price": 3.95,
    "meal_price": 9.0,
    "city": "BLED",
    "latitude": 46.368334,
    "longitude": 14.1111195,
    "details_url": "https://www.studentska-prehrana.si/sl/restaurant/Details/2308"
  },
  {
    "name": "Pizzeria Favola",
    "rating": 4.0,
    "address": "Dunajska cesta 129, 1000 Ljubljana",
    "subsidy_price": 3.95,
    "meal_price": 9.0,
    "city": "LJUBLJANA",
    "latitude": 46.0775941,
    "longitude": 14.5118999,
    "details_url": "https://www.studentska-prehrana.si/sl/restaurant/Details/3295"
  },
  {
    "name": "Pizzeria FoculuS",
    "rating": 5.0,
    "address": "Gregorčičeva ulica 3, 1000 Ljubljana",
    "subsidy_price": 3.95,
    "meal_price": 9.0,
    "city": "LJUBLJANA",
    "latitude": 46.04792605,
    "longitude": 14.5021382,
    "details_url": "https://www.studentska-prehrana.si/sl/restaurant/Details/1441"
  },
  {
    "name": "Pizzeria Fontana",
    "rating": 5.0,
    "address": "Dalmatinova ulica 2, 8270 Krško",
    "subsidy_price": 3.95,
    "meal_price": 9.0,
    "city": "KRŠKO",
    "latitude": 45.9638619,
    "longitude": 15.4861918,
    "details_url": "https://www.studentska-prehrana.si/sl/restaurant/Details/2284"
  },
  {
    "name": "Pizzeria Gusto",
    "rating": null,
    "address": "Trg osvobodilne fronte 14, 1000 Ljubljana",
    "subsidy_price": 3.95,
    "meal_price": 9.0,
    "city": "LJUBLJANA",
    "latitude": 46.0574455,
    "longitude": 14.5089472,
    "details_url": "https://www.studentska-prehrana.si/sl/restaurant/Details/3388"
  },
  {
    "name": "Pizzeria in oštarija Chianti",
    "rating": 4.0,
    "address": "Rakuševa cesta 1, 1000 Ljubljana",
    "subsidy_price": 3.95,
    "meal_price": 9.0,
    "city": "LJUBLJANA",
    "latitude": 46.0782899,
    "longitude": 14.4836777,
    "details_url": "https://www.studentska-prehrana.si/sl/restaurant/Details/3174"
  },
  {
    "name": "Pizzeria in špageteria Al Capone",
    "rating": 3.0,
    "address": "Pobreška cesta 18, 2000 Maribor",
    "subsidy_price": 3.95,
    "meal_price": 9.0,
    "city": "MARIBOR",
    "latitude": 46.553751,
    "longitude": 15.651964,
    "details_url": "https://www.studentska-prehrana.si/sl/restaurant/Details/1103"
  },
  {
    "name": "Pizzeria in špagetteria Cubus",
    "rating": 5.0,
    "address": "Podbevškova ulica 11, 8000 Novo mesto",
    "subsidy_price": 2.55,
    "meal_price": 7.6,
    "city": "NOVO MESTO",
    "latitude": 45.8043094,
    "longitude": 15.196019,
    "details_url": "https://www.studentska-prehrana.si/sl/restaurant/Details/1305"
  },
  {
    "name": "Pizzeria Laterna",
    "rating": 5.0,
    "address": "Tržaška 79a, 1000 Ljubljana",
    "subsidy_price": 3.95,
    "meal_price": 9.0,
    "city": "LJUBLJANA",
    "latitude": 46.04252341,
    "longitude": 14.47929798,
    "details_url": "https://www.studentska-prehrana.si/sl/restaurant/Details/1423"
  },
  {
    "name": "Pizzeria Oliva",
    "rating": 3.0,
    "address": "Litijska cesta 38, 1000 Ljubljana",
    "subsidy_price": 3.95,
    "meal_price": 9.0,
    "city": "LJUBLJANA",
    "latitude": 46.0470744,
    "longitude": 14.5449275,
    "details_url": "https://www.studentska-prehrana.si/sl/restaurant/Details/3309"
  },
  {
    "name": "Pizzeria Osmica",
    "rating": 4.0,
    "address": "Nazorjeva ulica 8, 1000 Ljubljana",
    "subsidy_price": 3.95,
    "meal_price": 9.0,
    "city": "LJUBLJANA",
    "latitude": 46.0527303,
    "longitude": 14.5045867,
    "details_url": "https://www.studentska-prehrana.si/sl/restaurant/Details/2165"
  },
  {
    "name": "Pizzeria Parma",
    "rating": 4.0,
    "address": "Trg republike 2, 1000 Ljubljana",
    "subsidy_price": 3.75,
    "meal_price": 8.8,
    "city": "LJUBLJANA",
    "latitude": 46.0500505,
    "longitude": 14.5004647,
    "details_url": "https://www.studentska-prehrana.si/sl/restaurant/Details/2375"
  },
  {
    "name": "Pizzeria Šestinka",
    "rating": 4.0,
    "address": "Miklošičeva cesta 22, 1000 Ljubljana",
    "subsidy_price": 0.0,
    "meal_price": 5.05,
    "city": "LJUBLJANA",
    "latitude": 46.0544486,
    "longitude": 14.5072493,
    "details_url": "https://www.studentska-prehrana.si/sl/restaurant/Details/1335"
  },
  {
    "name": "Pizzerija Atrij d.o.o.",
    "rating": 5.0,
    "address": "Čevljarska 8, 6000 Koper/Capodistria",
    "subsidy_price": 3.23,
    "meal_price": 8.28,
    "city": "KOPER/CAPODISTRIA",
    "latitude": 45.5475251,
    "longitude": 13.7294406,
    "details_url": "https://www.studentska-prehrana.si/sl/restaurant/Details/1031"
  },
  {
    "name": "Pizzerija Dimnik",
    "rating": 4.0,
    "address": "Obrtniška cesta 1, 1420 Trbovlje",
    "subsidy_price": 3.95,
    "meal_price": 9.0,
    "city": "TRBOVLJE",
    "latitude": 46.1549843,
    "longitude": 15.0511805,
    "details_url": "https://www.studentska-prehrana.si/sl/restaurant/Details/1716"
  },
  {
    "name": "Pizzerija Dimnik - dostava",
    "rating": 4.0,
    "address": "Obrtniška cesta 1, 1420 Trbovlje",
    "subsidy_price": 3.95,
    "meal_price": 9.0,
    "city": "TRBOVLJE",
    "latitude": 46.1549843,
    "longitude": 15.0511805,
    "details_url": "https://www.studentska-prehrana.si/sl/restaurant/Details/1717"
  },
  {
    "name": "Pizzerija in okrepčevalnica KONDOR",
    "rating": 4.0,
    "address": "Cesta v Mestni log 55, 1000 Ljubljana",
    "subsidy_price": 3.45,
    "meal_price": 8.5,
    "city": "LJUBLJANA",
    "latitude": 46.0366776,
    "longitude": 14.4895863,
    "details_url": "https://www.studentska-prehrana.si/sl/restaurant/Details/1413"
  },
  {
    "name": "Pizzerija in špageterija Alcapone",
    "rating": 4.0,
    "address": "Moskovska ulica 4, 1000 Ljubljana",
    "subsidy_price": 3.95,
    "meal_price": 9.0,
    "city": "LJUBLJANA",
    "latitude": 46.0681081,
    "longitude": 14.5420462,
    "details_url": "https://www.studentska-prehrana.si/sl/restaurant/Details/3116"
  },
  {
    "name": "Pizzerija Velun",
    "rating": 5.0,
    "address": "Šalek 24 a, 3320 Velenje",
    "subsidy_price": 3.15,
    "meal_price": 8.2,
    "city": "VELENJE",
    "latitude": 46.3621913,
    "longitude": 15.1258621,
    "details_url": "https://www.studentska-prehrana.si/sl/restaurant/Details/1176"
  },
  {
    "name": "Prfect Meals - dostava",
    "rating": null,
    "address": "Študljanska 20, 1230 Domžale",
    "subsidy_price": 2.85,
    "meal_price": 7.9,
    "city": "DOMŽALE",
    "latitude": 46.1260469,
    "longitude": 14.6000456,
    "details_url": "https://www.studentska-prehrana.si/sl/restaurant/Details/3360"
  },
  {
    "name": "Prometna šola Maribor",
    "rating": 5.0,
    "address": "Preradovičeva ulica 33, 2000 Maribor",
    "subsidy_price": 1.95,
    "meal_price": 7.0,
    "city": "MARIBOR",
    "latitude": 46.553867,
    "longitude": 15.6245844,
    "details_url": "https://www.studentska-prehrana.si/sl/restaurant/Details/1265"
  },
  {
    "name": "Pr'picopeku",
    "rating": 4.0,
    "address": "Rimska cesta 17, 1000 Ljubljana",
    "subsidy_price": 1.97,
    "meal_price": 7.02,
    "city": "LJUBLJANA",
    "latitude": 46.047555,
    "longitude": 14.4990629,
    "details_url": "https://www.studentska-prehrana.si/sl/restaurant/Details/3364"
  },
  {
    "name": "Q TABOR",
    "rating": 4.0,
    "address": "Gorkega ulica 45, 2000 Maribor",
    "subsidy_price": 3.95,
    "meal_price": 9.0,
    "city": "MARIBOR",
    "latitude": 46.5499577,
    "longitude": 15.6385033,
    "details_url": "https://www.studentska-prehrana.si/sl/restaurant/Details/2651"
  },
  {
    "name": "Restavracija & pub GOLD PUB",
    "rating": 5.0,
    "address": "koroška cesta 61, 2360 Radlje ob Dravi",
    "subsidy_price": 3.95,
    "meal_price": 9.0,
    "city": "RADLJE OB DRAVI",
    "latitude": 46.615453,
    "longitude": 15.2129088,
    "details_url": "https://www.studentska-prehrana.si/sl/restaurant/Details/3344"
  },
  {
    "name": "Restavracija 123 DSU",
    "rating": 4.0,
    "address": "Litostrojska 54, 1000 Ljubljana",
    "subsidy_price": 1.75,
    "meal_price": 6.8,
    "city": "LJUBLJANA",
    "latitude": 46.0823205,
    "longitude": 14.4964189,
    "details_url": "https://www.studentska-prehrana.si/sl/restaurant/Details/2187"
  },
  {
    "name": "Restavracija 123 Mega center 2",
    "rating": 4.0,
    "address": "Verovškova ulica 55a, 1000 Ljubljana",
    "subsidy_price": 1.75,
    "meal_price": 6.8,
    "city": "LJUBLJANA",
    "latitude": 46.0638551,
    "longitude": 14.4957973,
    "details_url": "https://www.studentska-prehrana.si/sl/restaurant/Details/2528"
  },
  {
    "name": "Restavracija 123 Pristan Koper",
    "rating": 5.0,
    "address": "Vojkovo nabrežje 32, 6000 Koper/Capodistria",
    "subsidy_price": 1.75,
    "meal_price": 6.8,
    "city": "KOPER/CAPODISTRIA",
    "latitude": 45.548204,
    "longitude": 13.7377678,
    "details_url": "https://www.studentska-prehrana.si/sl/restaurant/Details/3339"
  },
  {
    "name": "Restavracija Allegria",
    "rating": 4.0,
    "address": "Nazorjeva ulica 8, 1000 Ljubljana",
    "subsidy_price": 3.95,
    "meal_price": 9.0,
    "city": "LJUBLJANA",
    "latitude": 46.0527303,
    "longitude": 14.5045867,
    "details_url": "https://www.studentska-prehrana.si/sl/restaurant/Details/2164"
  },
  {
    "name": "Restavracija Ancora",
    "rating": 3.0,
    "address": "Jurčičeva ulica 7, 2000 Maribor",
    "subsidy_price": 3.67,
    "meal_price": 8.72,
    "city": "MARIBOR",
    "latitude": 46.5591908,
    "longitude": 15.6473742,
    "details_url": "https://www.studentska-prehrana.si/sl/restaurant/Details/2501"
  },
  {
    "name": "Restavracija Azija",
    "rating": 5.0,
    "address": "Ptujska cesta 131 , 2000 Maribor",
    "subsidy_price": 3.95,
    "meal_price": 9.0,
    "city": "MARIBOR",
    "latitude": 46.5311257,
    "longitude": 15.6701161,
    "details_url": "https://www.studentska-prehrana.si/sl/restaurant/Details/2703"
  },
  {
    "name": "Restavracija Brejk",
    "rating": 4.0,
    "address": "Dunajska cesta 22, 1000 Ljubljana",
    "subsidy_price": 3.95,
    "meal_price": 9.0,
    "city": "LJUBLJANA",
    "latitude": 46.0620352,
    "longitude": 14.5093682,
    "details_url": "https://www.studentska-prehrana.si/sl/restaurant/Details/2527"
  },
  {
    "name": "Restavracija Eat Smart 1",
    "rating": 5.0,
    "address": "Koroška cesta 46, 2000 Maribor",
    "subsidy_price": 3.05,
    "meal_price": 8.1,
    "city": "MARIBOR",
    "latitude": 46.5594876,
    "longitude": 15.6392718,
    "details_url": "https://www.studentska-prehrana.si/sl/restaurant/Details/2234"
  },
  {
    "name": "Restavracija Eat Smart 2",
    "rating": 5.0,
    "address": "Koroška cesta 80, 2000 Maribor",
    "subsidy_price": 3.05,
    "meal_price": 8.1,
    "city": "MARIBOR",
    "latitude": 46.5595476,
    "longitude": 15.6338033,
    "details_url": "https://www.studentska-prehrana.si/sl/restaurant/Details/3232"
  },
  {
    "name": "Restavracija Fany & Mary",
    "rating": 3.0,
    "address": "Petkovškovo nabrežje 19, 1000 Ljubljana",
    "subsidy_price": 3.95,
    "meal_price": 9.0,
    "city": "LJUBLJANA",
    "latitude": 46.0520454,
    "longitude": 14.5083412,
    "details_url": "https://www.studentska-prehrana.si/sl/restaurant/Details/1827"
  },
  {
    "name": "Restavracija Fresco",
    "rating": 5.0,
    "address": "Slovenska cesta 51, 1000 Ljubljana",
    "subsidy_price": 3.95,
    "meal_price": 9.0,
    "city": "LJUBLJANA",
    "latitude": 46.0556131,
    "longitude": 14.5048633,
    "details_url": "https://www.studentska-prehrana.si/sl/restaurant/Details/2097"
  },
  {
    "name": "Restavracija FS, Fakulteta za strojništvo",
    "rating": 4.0,
    "address": "Aškerčeva ulica 6, 1000 Ljubljana",
    "subsidy_price": 3.43,
    "meal_price": 8.48,
    "city": "LJUBLJANA",
    "latitude": 46.0468575,
    "longitude": 14.4984281,
    "details_url": "https://www.studentska-prehrana.si/sl/restaurant/Details/3134"
  },
  {
    "name": "Restavracija in maloprodaja Hermine Wech - Koroška perutnina",
    "rating": 5.0,
    "address": "Gačnikova pot 2, 2390 Ravne na Koroškem",
    "subsidy_price": 2.75,
    "meal_price": 7.8,
    "city": "RAVNE NA KOROŠKEM",
    "latitude": 46.544365,
    "longitude": 14.9627537,
    "details_url": "https://www.studentska-prehrana.si/sl/restaurant/Details/3036"
  },
  {
    "name": "Restavracija in maloprodaja Hermine Wech - Koroška perutnina",
    "rating": 2.0,
    "address": "Ozare, 2380 Slovenj Gradec",
    "subsidy_price": 2.75,
    "meal_price": 7.8,
    "city": "SLOVENJ GRADEC",
    "latitude": 46.5075851,
    "longitude": 15.0768162,
    "details_url": "https://www.studentska-prehrana.si/sl/restaurant/Details/3038"
  },
  {
    "name": "Restavracija in pivnica Zvezda",
    "rating": 5.0,
    "address": "Trg zmage 8, 9000 Murska Sobota",
    "subsidy_price": 3.45,
    "meal_price": 8.5,
    "city": "MURSKA SOBOTA",
    "latitude": 46.660916,
    "longitude": 16.164826,
    "details_url": "https://www.studentska-prehrana.si/sl/restaurant/Details/2343"
  },
  {
    "name": "Restavracija in prenočišča ČARDA",
    "rating": 5.0,
    "address": "Nemčavci 39c, 9221 Martjanci",
    "subsidy_price": 3.95,
    "meal_price": 9.0,
    "city": "MARTJANCI",
    "latitude": 46.6726667,
    "longitude": 16.1788959,
    "details_url": "https://www.studentska-prehrana.si/sl/restaurant/Details/3389"
  },
  {
    "name": "Restavracija Interspar Celje",
    "rating": 4.0,
    "address": "Mariborska 100, 3000 Celje",
    "subsidy_price": 3.57,
    "meal_price": 8.62,
    "city": "CELJE",
    "latitude": 46.2417572,
    "longitude": 15.2761156,
    "details_url": "https://www.studentska-prehrana.si/sl/restaurant/Details/1195"
  },
  {
    "name": "Restavracija Interspar Citypark",
    "rating": 4.0,
    "address": "Šmartinska 152g, 1000 Ljubljana",
    "subsidy_price": 3.57,
    "meal_price": 8.62,
    "city": "LJUBLJANA",
    "latitude": 46.0702369,
    "longitude": 14.5490389,
    "details_url": "https://www.studentska-prehrana.si/sl/restaurant/Details/1369"
  },
  {
    "name": "Restavracija Interspar Koper",
    "rating": 4.0,
    "address": "Ankaranska cesta 3A, 6000 Koper/Capodistria",
    "subsidy_price": 3.57,
    "meal_price": 8.62,
    "city": "KOPER/CAPODISTRIA",
    "latitude": 45.5432181,
    "longitude": 13.7410232,
    "details_url": "https://www.studentska-prehrana.si/sl/restaurant/Details/1023"
  },
  {
    "name": "Restavracija Interspar Kranj",
    "rating": 4.0,
    "address": "Cesta 1.maja 77, 4000 Kranj",
    "subsidy_price": 3.57,
    "meal_price": 8.62,
    "city": "KRANJ",
    "latitude": 46.2317974,
    "longitude": 14.364596,
    "details_url": "https://www.studentska-prehrana.si/sl/restaurant/Details/1198"
  },
  {
    "name": "Restavracija Interspar Maribor Europark",
    "rating": 5.0,
    "address": "Pobreška 18, 2000 Maribor",
    "subsidy_price": 3.57,
    "meal_price": 8.62,
    "city": "MARIBOR",
    "latitude": 46.554734,
    "longitude": 15.6534804,
    "details_url": "https://www.studentska-prehrana.si/sl/restaurant/Details/1194"
  },
  {
    "name": "Restavracija Interspar Maribor2 Supernova Qlandia",
    "rating": 5.0,
    "address": "Cesta Proletarskih brigad 100, 2000 Maribor",
    "subsidy_price": 3.57,
    "meal_price": 8.62,
    "city": "MARIBOR",
    "latitude": 46.546433,
    "longitude": 15.618417,
    "details_url": "https://www.studentska-prehrana.si/sl/restaurant/Details/1197"
  },
  {
    "name": "Restavracija Interspar Nova Gorica",
    "rating": 5.0,
    "address": "Cesta 25. junija 1a, 5000 Nova Gorica",
    "subsidy_price": 3.57,
    "meal_price": 8.62,
    "city": "NOVA GORICA",
    "latitude": 45.9555094,
    "longitude": 13.6572042,
    "details_url": "https://www.studentska-prehrana.si/sl/restaurant/Details/1025"
  },
  {
    "name": "Restavracija Interspar Vič",
    "rating": 5.0,
    "address": "Jamova 105, 1000 Ljubljana",
    "subsidy_price": 3.57,
    "meal_price": 8.62,
    "city": "LJUBLJANA",
    "latitude": 46.03967798,
    "longitude": 14.47670298,
    "details_url": "https://www.studentska-prehrana.si/sl/restaurant/Details/1370"
  },
  {
    "name": "Restavracija Kitajska palača",
    "rating": 5.0,
    "address": "Focheva ulica 41, 2000 Maribor",
    "subsidy_price": 3.25,
    "meal_price": 8.3,
    "city": "MARIBOR",
    "latitude": 46.5453657,
    "longitude": 15.643939,
    "details_url": "https://www.studentska-prehrana.si/sl/restaurant/Details/2040"
  },
  {
    "name": "Restavracija Kitajska palača - DOSTAVA",
    "rating": 4.0,
    "address": "Focheva ulica 41, 2000 Maribor",
    "subsidy_price": 3.95,
    "meal_price": 9.0,
    "city": "MARIBOR",
    "latitude": 46.5453657,
    "longitude": 15.643939,
    "details_url": "https://www.studentska-prehrana.si/sl/restaurant/Details/2775"
  },
  {
    "name": "Restavracija klub Cankarjevega doma",
    "rating": 5.0,
    "address": "Prešernova cesta 10, 1000 Ljubljana",
    "subsidy_price": 3.95,
    "meal_price": 9.0,
    "city": "LJUBLJANA",
    "latitude": 46.0500434,
    "longitude": 14.4988365,
    "details_url": "https://www.studentska-prehrana.si/sl/restaurant/Details/1768"
  },
  {
    "name": "Restavracija Kolodvorska",
    "rating": 5.0,
    "address": "Cesta talcev 37, 3320 Velenje",
    "subsidy_price": 3.95,
    "meal_price": 9.0,
    "city": "VELENJE",
    "latitude": 46.3633644,
    "longitude": 15.1037539,
    "details_url": "https://www.studentska-prehrana.si/sl/restaurant/Details/1263"
  },
  {
    "name": "Restavracija Kompliment",
    "rating": 5.0,
    "address": "Kidričeva cesta 75, 4220 Škofja Loka",
    "subsidy_price": 3.95,
    "meal_price": 9.0,
    "city": "ŠKOFJA LOKA",
    "latitude": 46.170667,
    "longitude": 14.342255,
    "details_url": "https://www.studentska-prehrana.si/sl/restaurant/Details/3096"
  },
  {
    "name": "Restavracija Letališka",
    "rating": 5.0,
    "address": "Letališka cesta 15, 1000 Ljubljana",
    "subsidy_price": 1.75,
    "meal_price": 6.8,
    "city": "LJUBLJANA",
    "latitude": 46.0619631,
    "longitude": 14.5525533,
    "details_url": "https://www.studentska-prehrana.si/sl/restaurant/Details/1713"
  },
  {
    "name": "Restavracija Mango",
    "rating": 5.0,
    "address": "Turnerjeva ulica 17, 2000 Maribor",
    "subsidy_price": 3.25,
    "meal_price": 8.3,
    "city": "MARIBOR",
    "latitude": 46.56316907,
    "longitude": 15.62965699,
    "details_url": "https://www.studentska-prehrana.si/sl/restaurant/Details/2085"
  },
  {
    "name": "Restavracija McDonalds - Citycenter Celje",
    "rating": 4.0,
    "address": "Mariborska cesta 100, 3000 Celje",
    "subsidy_price": 2.75,
    "meal_price": 7.8,
    "city": "CELJE",
    "latitude": 46.2419031,
    "longitude": 15.2774074,
    "details_url": "https://www.studentska-prehrana.si/sl/restaurant/Details/2649"
  },
  {
    "name": "Restavracija McDonalds - Ptuj",
    "rating": 4.0,
    "address": "Ormoška cesta 3, 2250 Ptuj",
    "subsidy_price": 2.75,
    "meal_price": 7.8,
    "city": "PTUJ",
    "latitude": 46.41889598,
    "longitude": 15.8771082,
    "details_url": "https://www.studentska-prehrana.si/sl/restaurant/Details/2759"
  },
  {
    "name": "Restavracija Mensana",
    "rating": 4.0,
    "address": "Slomškova ulica 49, 9000 Murska Sobota",
    "subsidy_price": 3.15,
    "meal_price": 8.2,
    "city": "MURSKA SOBOTA",
    "latitude": 46.6579914,
    "longitude": 16.1638527,
    "details_url": "https://www.studentska-prehrana.si/sl/restaurant/Details/3144"
  },
  {
    "name": "Restavracija Menza IJS",
    "rating": 4.0,
    "address": "Jamova cesta 39, 1000 Ljubljana",
    "subsidy_price": 3.15,
    "meal_price": 8.2,
    "city": "LJUBLJANA",
    "latitude": 46.0428394,
    "longitude": 14.4876334,
    "details_url": "https://www.studentska-prehrana.si/sl/restaurant/Details/3236"
  },
  {
    "name": "Restavracija Modri kvadrat",
    "rating": 4.0,
    "address": "Davčna ulica 1, 1000 Ljubljana",
    "subsidy_price": 3.45,
    "meal_price": 8.5,
    "city": "LJUBLJANA",
    "latitude": 46.0650084,
    "longitude": 14.5268284,
    "details_url": "https://www.studentska-prehrana.si/sl/restaurant/Details/2721"
  },
  {
    "name": "Restavracija Moysushi",
    "rating": null,
    "address": "Mestni trg 17, 1000 Ljubljana",
    "subsidy_price": 3.95,
    "meal_price": 9.0,
    "city": "LJUBLJANA",
    "latitude": 46.0489118,
    "longitude": 14.5060514,
    "details_url": "https://www.studentska-prehrana.si/sl/restaurant/Details/3358"
  },
  {
    "name": "Restavracija Mozart",
    "rating": 5.0,
    "address": "Stegne 7, 1000 Ljubljana",
    "subsidy_price": 3.45,
    "meal_price": 8.5,
    "city": "LJUBLJANA",
    "latitude": 46.0816492,
    "longitude": 14.486736,
    "details_url": "https://www.studentska-prehrana.si/sl/restaurant/Details/1382"
  },
  {
    "name": "Restavracija Mozart P.E. Ekonomska fakulteta",
    "rating": 4.0,
    "address": "Kardeljeva ploščad 17, 1000 Ljubljana",
    "subsidy_price": 3.45,
    "meal_price": 8.5,
    "city": "LJUBLJANA",
    "latitude": 46.0740168,
    "longitude": 14.516449,
    "details_url": "https://www.studentska-prehrana.si/sl/restaurant/Details/3172"
  },
  {
    "name": "Restavracija Mr.Falafel",
    "rating": 4.0,
    "address": "Gosposka ulica 30, 2000 Maribor",
    "subsidy_price": 3.95,
    "meal_price": 9.0,
    "city": "MARIBOR",
    "latitude": 46.5598616,
    "longitude": 15.6467848,
    "details_url": "https://www.studentska-prehrana.si/sl/restaurant/Details/3049"
  },
  {
    "name": "Restavracija OAZA Pef",
    "rating": 5.0,
    "address": "Kardeljeva ploščad 16, 1000 Ljubljana",
    "subsidy_price": 2.94,
    "meal_price": 7.99,
    "city": "LJUBLJANA",
    "latitude": 46.0754157,
    "longitude": 14.5179893,
    "details_url": "https://www.studentska-prehrana.si/sl/restaurant/Details/3179"
  },
  {
    "name": "Restavracija Pergola",
    "rating": 5.0,
    "address": "Tomažičeva ulica 10, 6310 Izola/Isola",
    "subsidy_price": 3.35,
    "meal_price": 8.4,
    "city": "IZOLA/ISOLA",
    "latitude": 45.5328016,
    "longitude": 13.6510231,
    "details_url": "https://www.studentska-prehrana.si/sl/restaurant/Details/3241"
  },
  {
    "name": "Restavracija PF, Pravna fakulteta",
    "rating": 4.0,
    "address": "Poljanski nasip 2, 1000 Ljubljana",
    "subsidy_price": 3.43,
    "meal_price": 8.48,
    "city": "LJUBLJANA",
    "latitude": 46.0515247,
    "longitude": 14.5110994,
    "details_url": "https://www.studentska-prehrana.si/sl/restaurant/Details/3240"
  },
  {
    "name": "Restavracija Piano",
    "rating": null,
    "address": "Koroška cesta 160, 2000 Maribor",
    "subsidy_price": 3.05,
    "meal_price": 8.1,
    "city": "MARIBOR",
    "latitude": 46.563898,
    "longitude": 15.6239313,
    "details_url": "https://www.studentska-prehrana.si/sl/restaurant/Details/3396"
  },
  {
    "name": "Restavracija pizza Bella Napoli",
    "rating": null,
    "address": "Moskovska ulica 11, 1000 Ljubljana",
    "subsidy_price": 3.95,
    "meal_price": 9.0,
    "city": "LJUBLJANA",
    "latitude": 46.065363,
    "longitude": 14.55022,
    "details_url": "https://www.studentska-prehrana.si/sl/restaurant/Details/3376"
  },
  {
    "name": "Restavracija Plečnikov hram",
    "rating": 4.0,
    "address": "Trg francoske revolucije 2, 1000 Ljubljana",
    "subsidy_price": 3.75,
    "meal_price": 8.8,
    "city": "LJUBLJANA",
    "latitude": 46.0470781,
    "longitude": 14.5034063,
    "details_url": "https://www.studentska-prehrana.si/sl/restaurant/Details/1360"
  },
  {
    "name": "Restavracija Prestige catering, GZS",
    "rating": 5.0,
    "address": "Dimičeva ulica 13, 1000 Ljubljana",
    "subsidy_price": 2.55,
    "meal_price": 7.6,
    "city": "LJUBLJANA",
    "latitude": 46.0715896,
    "longitude": 14.5148274,
    "details_url": "https://www.studentska-prehrana.si/sl/restaurant/Details/2180"
  },
  {
    "name": "Restavracija Rdeče jabolko",
    "rating": 5.0,
    "address": "Tržaška 116, 1000 Ljubljana",
    "subsidy_price": 3.95,
    "meal_price": 9.0,
    "city": "LJUBLJANA",
    "latitude": 46.0398978,
    "longitude": 14.4730179,
    "details_url": "https://www.studentska-prehrana.si/sl/restaurant/Details/1321"
  },
  {
    "name": "Restavracija sarajevskih jedi Valter Jesenice",
    "rating": 5.0,
    "address": "Cesta Maršala Tita 106, 4270 Jesenice",
    "subsidy_price": 3.95,
    "meal_price": 9.0,
    "city": "JESENICE",
    "latitude": 46.441619,
    "longitude": 14.0390784,
    "details_url": "https://www.studentska-prehrana.si/sl/restaurant/Details/2884"
  },